post_title,post_content,post_address,post_city,post_region,post_country,post_zip,post_latitude,post_longitude,post_tel,post_email,post_website,toilets,shower,bbq,drinking_water,power_supply,sanitary_dump_station,dogs,tents,caravans
Roebuck Plains Rest Area,,,,,Australia,,-18.0141969,122.5953494,,,,,,,,,,,,
Roma Bassett Park Showgrounds,Maranoa Regional Council,,,,Australia,,-26.5535347,148.785612,,,,yes,yes,,,yes,,,yes,yes
Rooky's Retreat - For Sale.,,,,,Australia,,-17.3412787,144.9302484,,,,,,,,,,,,
Roper Valley East Rest Area,,,,,Australia,,-14.76139,134.18944,,,,,,,,,,,,
Rose Bay Park,,,,,Australia,,-41.29389,146.97222,,,,,,,,,,,,
Rosedale Royal Hotel & Caravan Park,,,,,Australia,,-24.62889,151.91639,,,,,,,,,,,,
Thora - Roses Park Rest Area,,,,,Australia,,-30.4258952,152.7790013,,,,yes,no,,no,no,no,,yes,yes
Rosevale Retreat Hotel,,,,,Australia,,-27.86194,152.47639,,,,,,,,,,,,
Ross Road Parking Bay,,,,,Australia,,-29.01722,115.93889,,,,,,,,,,,,
Rotoract Club Parking Area,,,,,Australia,,-37.74806,140.61056,,,,,,,,,,,,
Round Hill Rest Area,,,,,Australia,,-31.9375108,141.5181898,,,,yes,no,,,,,,,
Round Water Hole Rest Area,,,,,Australia,,-26.7229389,150.6668947,,,,no,,,,,,,yes,yes
Routh Creek Rest Area,,,,,Australia,,-18.311957,143.7767764,,,,yes,no,,,,,,,
Rowles Lagoon Conservation Park,,,,,Australia,,-30.4262482,120.863779,,,,,,,,,,,,
Roxby Downs,,,,,Australia,,-30.54722,136.94,,,,,,,,,,,,
Roy Hill Rest Area,,,,,Australia,,-22.66944,119.95028,,,,,,,,,,,,
Mount Hope Hotel,,,,,Australia,,-32.8401048,145.8790183,,,,,,,,,,,,
Royal Mail Hotel,,,,,Australia,,-34.93167,144.76222,,,,,,,,,,,,
Rudds Point Reserve,,,,,Australia,,-34.46722,145.44139,,,,,,,,,,,,
Rummery Park,,,,,Australia,,-28.598693,153.3782346,,,,,,,,,,,,
Russ Creek,,,,,Australia,,-16.04806,126.70111,,,,,,,,,,,,
Ryan Well Historical Reserve,,,,,Australia,,-22.7193765,133.3828081,,,,,,,,,,,,
S.S. Ellen Park,,,,,Australia,,-34.253623,140.6477935,,,,,,,,,,,,
Saddle Creek,,,,,Australia,,-15.9571044,129.5618147,,,,,,,,,,,,
Saddleworth Park,,,,,Australia,,-34.04722,138.79806,,,,,,,,,,,,
Saddleworth Rest Area,,,,,Australia,,-34.09806,138.77417,,,,,,,,,,,,
Sailing Club Picnic Area,,,,,Australia,,-32.27333,152.525,,,,,,,,,,,,
Saltwater Creek,,,,,Australia,,-37.16889,149.99944,,,,,,,,,,,,
Samford Showground,,,,,Australia,,-27.3700469,152.817835,,,,yes,yes,,,yes,,,,
Sandy Beach Camp,,,,,Australia,,-34.72111,146.46306,,,,,,,,,,,,
Sandy Beach Reserve,Junee Shire Council,,,,Australia,,-35.0683835,147.7394796,,,,yes,no,,,,,,yes,yes
Sandy Billabong Camping Area,,,,,Australia,,-12.90056,132.77361,,,,,,,,,,,,
Sandy Cape Recreational Park,,,,,Australia,,-30.1843878,114.9978552,,,,,,,,,,,,
Sandy Corner Rest Area,,,,,Australia,,-19.5709255,147.3373647,,,,yes,no,,,,,,,
Sandy Creek,,,,,Australia,,-31.7487613,147.7833006,,,,no,,,,,,,yes,yes
Sandy Point Reserve,Hay Shire Council,,,,Australia,,-34.5146827,144.8355861,,,,yes,no,,,,,,,
Sandy Way Rest Area,,,,,Australia,,-25.2218318,131.2312014,,,,,,,,,,,,
Sawtooth Gorge,,,,,Australia,,-18.425,127.82056,,,,,,,,,,,,
Scaddan Pioneer Park,,,,,Australia,,-33.4418308,121.7232984,,,,yes,no,,,,,,,
Trout Creek Camping Area,,,,,Australia,,-41.43722,148.22694,,,,,,,,,,,,
Sceale Bay Bush Camping,,,,,Australia,,-33.0159976,134.1969124,,,,,,,,,,,,
13k Peg Rest Area,,,,,Australia,,-31.6595018,129.1309177,,,,no,,,,,,,,
Scenic Lookout Parking Area,,,,,Australia,,-16.2577137,128.30569,,,,,,,,,,,,
School Point Campground,,,,,Australia,,-17.14833,145.61083,,,,,,,,,,,,
Schwagers Bore Picnic Area,,,,,Australia,,-30.6035523,149.315315,,,,,,,,,,,,
Scrubby Camp,,,,,Australia,,-27.66056,140.38417,,,,,,,,,,,,
Seal Creek Campground,,,,,Australia,,-33.914312,123.3343881,,,,,,,,,,,,
Seisia Holiday Park,,,,,Australia,,-10.8475,142.36806,,,,,,,,,,,,
Serpentine Chalet Bush Camping,,,,,Australia,,-23.75028,132.91556,,,,,,,,,,,,
Sharon Nature Park,,,,,Australia,,-24.88361,152.24278,,,,,,,,,,,,
Sheba Dams Reserve,Tamworth Regional Council,,,,Australia,,-31.498868,151.1962028,,,,yes,no,,,,,,yes,yes
Sheepstation Creek Campground,,,,,Australia,,-28.4131817,153.0231786,,,,,,,,,,,,
Shelley Beach Camping Area,,,,,Australia,,-35.10889,117.62944,,,https://www.westernaustralia.com/au/accommodation/shelley-beach-camp-at-west-cape-howe-national-park/56b26b5b7b935fbe730e9596,yes,no,,,,,,yes,no
Shelley Point,,,,,Australia,,-41.4341815,148.2733591,,,,,,,,,,,,
Wattle Point Camp Ground,,,,,Australia,,-35.13861,137.70222,,,,,,,,,,,,
Sheringa South Rest Area,,,,,Australia,,-33.9112743,135.2640808,,,,,,,,,,,,
Sherlock River,,,,,Australia,,-20.9446015,117.6128007,,,,,,,,,,,,
Shipwrights Point Regatta Ground,,,,,Australia,,-43.15861,146.97972,,,,,,,,,,,,
Shoalhaven Ski Park,,,,,Australia,,-34.87167,150.57,,,https://www.skipark.com.au/,,,,,,,,,
Silent Grove Camping Area,,,,,Australia,,-17.0668213,125.2482581,,,,yes,yes,,no,no,no,,yes,yes
Silver Plains Campground,,,,,Australia,,-42.0947874,147.1091143,,,,,,,,,,,,
Simeon Lord Park,,,,,Australia,,-26.9760849,152.3598247,,,,,,,,,,,yes,yes
Simpson Desert Oasis Roadhouse,,,,,Australia,,-24.3563549,139.4714782,,,,yes,yes,,,yes,,,,
Six Mile Creek Rest Area,,,,,Australia,,-26.23167,152.69694,,,,,,,,,,,,
Ski Beach,,,,,Australia,,-27.76444,140.685,,,https://www.parks.sa.gov.au/booking/details#/accom/73142,,,,,,,,,
Ski Beach,,,,,Australia,,-35.91667,145.67444,,,,,,,,,,,,
Smithton Esplanade,,,,,Australia,,-40.8388457,145.1202835,,,,yes,no,,,,,,no,yes
Snowtown (North) Rest Area,,,,,Australia,,-33.746463,138.2100488,,,,,,,,,,,,
Snowtown Centenary Park Caravan Park -,,,,,Australia,,-33.77833,138.2162379,,,,,,,,,,,,
Somerset Park Campground,,,,,Australia,,-27.1213361,152.5508445,,,,,,,,,,,,
Sommariva Rest Area,,,,,Australia,,-26.41417,146.625,,,,yes,no,,,,,,,
Sorell RV Park,,,,,Australia,,-42.7839049,147.5562429,,,,,,,,,,,,
Soren Hansen Bridge,,,,,Australia,,-26.586598,151.7899222,,,,,,,,,,,,
Soudan Bore Rest Area,,,,,Australia,,-20.073795,136.8772062,,,,,,,,,,,,
South Arm Rsl,,,,,Australia,,-43.02944,147.42806,,,,,,,,,,,,
South Esk Lions Park,,,,,Australia,,-41.509875,147.0589842,,,,,,,,,,,,
Southern Lost City,,,,,Australia,,-15.8088913,135.4559909,,,,,,,,,,,,
Spalding Junction Rest Area,,,,,Australia,,-33.61361,138.89472,,,,,,,,,,,,
Speeds Point,,,,,Australia,,-32.93083,134.12917,,,,,,,,,,,,
Spellmans Reserve Campsite,,,,,Australia,,-41.35139,146.16333,,,,,,,,,,,,
Spring Creek Caravan Park,,,,,Australia,,-27.95,151.99111,,,,,,,,,,,,
Spring Gully Camping Area,NSW National Parks and Wildlife Service,,,,Australia,,-32.2426607,150.0454946,,,,,,,,,,,,
Spring Hills Rest Area,,,,,Australia,,-31.72306,142.68583,,,,yes,no,,,,,,,
Square Bush Rest Area,,,,,Australia,,-31.2986428,150.49528,,,,no,,,,,,,,
River Gum Tourist Park,,,,,Australia,,-28.04417,148.57028,,,,,,,,,,,,
St Helens Camping Reserve,,,,,Australia,,-20.84111,148.84389,,,,,,,,,,,,
St Kilda Boat Ramp Car Park,,,,,Australia,,-34.743147,138.5342218,,,,yes,no,,yes,no,yes,,no,yes
St Lawrence Recreational Reserve,,,,,Australia,,-22.3507548,149.5202216,,,,,,,,,,,,
St Marys Sportsground & Golf Course,,,,,Australia,,-41.5847736,148.184317,,,,,,,,,,,,
Staircase Range Lookout,,,,,Australia,,-24.2159066,148.2027084,,,,no,,,,,,,,yes
Stanage Bay,,,,,Australia,,-22.1358992,150.0331334,,,,,,,,,,,,
Standown Park,,,,,Australia,,-26.03694,152.78722,,,,,,,,,,,,
Stanley Rest Area,,,,,Australia,,-19.0432094,121.666053,,,,,,,,,,,,
Stansbury Boat Ramp,,,,,Australia,,-34.90389,137.79667,,,,,,,,,,,,
Stewarts Bay State Reserve,,,,,Australia,,-43.13722,147.85361,,,,,,,,,,,,
Stewarts Brook Recreation Reserve,,,,,Australia,,-32.0032918,151.3083111,,,,,,,,,,,,
Stock Well 9,,,,,Australia,,-27.34444,115.89472,,,,,,,,,,,,
Stockton Lake Recreation Area,,,,,Australia,,-33.38472,116.22861,,,,,,,,,,,,
Stockyard Creek,,,,,Australia,,-19.5130105,145.7894815,,,,no,,,,,,,,
Stockyard Plain Disposal Basin Reserve,,,,,Australia,,-34.26111,139.81722,,,,,,,,,,,,
Stockyard Plain Rest Area,,,,,Australia,,-34.26528,139.80583,,,,,,,,,,,,
Stokes Bay Camp Site,,,,,Australia,,-35.6248937,137.2065338,,,,,,,,,,,,
Stonehenge Caravan Park,Barcoo Shire,,,,Australia,,-24.3549339,143.2867099,,,,yes,yes,,,yes,,,yes,yes
Straneys Bridge,NSW Water,,,,Australia,,-33.3719702,147.6538752,,,,no,,,,,,,,
Strangways Siding,,,,,Australia,,-29.1544646,136.5734468,,,,,,,,,,,,
Strathalbyn Caravan Park,,,,,Australia,,-35.2592364,138.8863919,,,,,,,,,,,,
Streaky Bay South Rest Area,,,,,Australia,,-32.9324481,134.4551624,,,,no,,,,,,,,
Strike A Light Campground,,,,,Australia,,-32.2905796,152.0862294,,,,,,,,,,,,
Stumpys Bay Campground 1,,,,,Australia,,-40.87111,148.22194,,,,yes,,,,,,,yes,yes
Sturdee Road Rest Area,,,,,Australia,,-34.53472,117.60139,,,,,,,,,,,,
Sturt Bay Camping Reserve,,,,,Australia,,-35.1082076,137.4028734,,,,,,,,,,,,
Sturt Creek,,,,,Australia,,-19.56,127.69361,,,,,,,,,,,,
Sturt Reserve,,,,,Australia,,-35.12222,139.28611,,,,,,,,,,,,
Swaggies Beach Camp,,,,,Australia,,-34.55917,145.95833,,,,,,,,,,,,
Swan Brook Rest Area,,,,,Australia,,-29.7717061,151.4354651,,,,yes,no,,,,,,yes,yes
Swan Reach Caravan Park,,,,,Australia,,-34.5678108,139.5961905,,,,yes,yes,,,yes,,,,yes
Swan Reach Conservation Park,,,,,Australia,,-34.57472,139.47889,,,,,,,,,,,,
Swan Vale Rest Area,,,,,Australia,,-24.5858276,143.268949,,,,yes,no,,,,,,yes,yes
Sweet Water Hill Winery,,,,,Australia,,-25.98972,152.685,,,,,,,,,,,,
Swincers Rocks,Yorke Peninsula Council,,,,Australia,,-34.97083,136.97056,,,,,,,,,,,,
Swinging Bridge Park,,,,,Australia,,-26.9815816,151.8330713,,,,,,,,,,,,
Swinging Bridge Reserve,,,,,Australia,,-35.1631228,148.6869853,,,,yes,no,,,,no,,yes,
T M Price Rotary Park,,,,,Australia,,-34.2063665,140.7023509,,,,,,,,,,,,
Ti Tree Roadhouse,,,,,Australia,,-22.13139,133.41667,,,,,,,,,,,,
Tahune Forest Reserve,,,,,Australia,,-43.0950386,146.731349,,,https://tahuneadventures.com.au/accommodation/camping/,,,,,,,,,
Tailem Bend South Rest Area,,,,,Australia,,-35.30444,139.43083,,,,,,,,,,,,
Talia Caves,District Council of Elliston,,,,Australia,,-33.31667,134.78583,,,,no,,,,,,,,
Talunga Park Caravan Park,,,,,Australia,,-34.77611,139.04278,,,,,,,,,,,,
Talwood Sports Ground,,,,,Australia,,-28.4870633,149.4683342,,,,yes,yes,,,yes,yes,,yes,yes
Tambo Cabin & Caravan Park,,Arthur Street,,QLD,Australia,4478,-24.885,146.24778,+61 7 4654 6463,Tambocabin@outlook.com,https://tambocabinandcaravanpark.com/,yes,yes,,,yes,yes,,yes,yes
Tambo North Rest Area,,,,,Australia,,-24.7507285,146.1054001,,,,yes,no,,,,,,,
Tamworth Airport Rest Area,,,,,Australia,,-31.07778,150.85056,,,,yes,,,,,yes,,,
Tandara Caravan Park,,,,,Australia,,-32.0366352,147.9793474,,,,,,,,,,,,
Tantanoola Rest Area,,,,,Australia,,-37.6962749,140.4556109,,,,no,no,,no,no,yes,,no,yes
Taralga Showgrounds,Taralga Co-Op,,,,Australia,,-34.403813,149.8246282,,,,yes,yes,,,yes,,,yes,yes
Tarcoonyinna Rest Area,,,,,Australia,,-26.8965431,133.380893,,,,,,,,,,,,
Tarlee Rest Area,,,,,Australia,,-34.27083,138.76444,,,,,,,,,,,,
Taroom Caravan Park,Ozzy Parks,,,,Australia,,-25.63833,149.79028,,,,yes,yes,,,yes,,,yes,yes
Tarpeena Rest Area,,,,,Australia,,-37.6267263,140.7966012,,,,,,,,,,,,
Tasman Rsl Club Nubeena !!only self contained!!,,,,,Australia,,-43.1082994,147.7466919,,,,,,,,,,,,
Taylor Park,,,,,Australia,,-32.16083,150.88806,,,,,,,,,,,,
Taylors Arm Reserve,,,,,Australia,,-30.76778,152.71611,,,"https://en.wikipedia.org/wiki/Taylors_Arm,_New_South_Wales",,,,,,,,,
Tcharkuldu Rock - West,,,,,Australia,,-32.84722,135.19583,,,,no,,,,,,,,
Tea Tree Campground,,,,,Australia,,-34.2423548,140.6468898,,,,,,,,,,,,
Teamsters Campground,,,,,Australia,,-31.3382413,138.5500834,,,,,,,,,,,,
Teamsters Memorial Park,,,,,Australia,,-16.53917,145.46944,,,,,,,,,,,,
Teamsters Rest Campground,,,,,Australia,,-31.55667,151.05611,,,,,,,,,,,,
Telleraga Rest Area,,,,,Australia,,-29.5625,149.395,,,,,,,,,,,,
Telstra Tower Layby,,,,,Australia,,-19.98694,140.21639,,,,no,,,,,,,,
Temora Showgrounds,,,,,Australia,,-34.4396948,147.5216193,,,,yes,yes,,yes,yes,public,,yes,yes
Tenham Rest Area,,,,,Australia,,-25.60611,143.02833,,,,yes,no,,,,,,,yes
Tenindewa Pioneer Well,,,,,Australia,,-28.61139,115.36139,,,,,,,,,,,,
Tenterfield Rest Area,,,,,Australia,,-29.071253,152.0208003,,,,,,,,,,,,
Terowie Railway Yard,,,,,Australia,,-33.1501392,138.9216206,,,,no,,,,,,,yes,yes
Terry Smith Lookout,,,,,Australia,,-20.080279,140.2272577,,,,yes,no,,,,yes,,,
Thackaringa Rest Area,,,,,Australia,,-32.0457532,141.1278069,,,,yes,no,,,,,,yes,yes
Thallon Recreation Ground - Free,Balonne Shire Council,,,,Australia,,-28.6329331,148.865978,,,,yes,yes,,,no,yes,,yes,yes
The Bamboos Campground,,,,,Australia,,-34.25278,137.50139,,,,,,,,,,,,
The Bend,,,,,Australia,,-13.92417,143.19389,,,,,,,,,,,,
The Boab Rest Area,,Great Northern Highway,,,Australia,,-17.8240822,124.2342652,,,,,,,,,,,,
The Bradley Wolf Braeve Heart Retreat -,,,,,Australia,,-24.25306,151.735,,,,,,,,,,,,
The Breakaways,,,,,Australia,,-32.2779646,120.2630274,,,,,,,,,,,,
The Broadwater,,,,,Australia,,-22.66083,144.56833,,,,,,,,,,,,
The Forrestania Plots,,,,,Australia,,-32.4156501,119.5338422,,,,,,,,,,,,
The Gap Campground,Yorke Peninsula Council,,,,Australia,,-34.23417,137.50167,,,,,,,,,,,,
The Gorge Campground,,,,,Australia,,-28.01028,152.55444,,,,,,,,,,,,
The Granites,,,,,Australia,,-36.65778,139.85472,,,,no,no,,no,no,no,,no,yes
The Happy Apple Caravan Park,,,,,Australia,,-28.54917,151.94722,,,,,,,,,,,yes,yes
The Junction Campground,,,,,Australia,,-33.16944,149.23917,,,,,,,,,,,,
The Knob Campsite,Self Contained Beach Camping. Payt station towards Cowell,,,,Australia,,-33.798922,136.8428577,,,,no,,,,,,,,
The Lake (Ellendale),,,,,Australia,,-17.9314257,124.783749,,,,,,,,,,,,
Lake Broadwater Campground,Western Downs Regional Council,,,,Australia,,-27.3536607,151.0925784,,,,yes,yes,,,no,,,,
The Pines Campground,,,,,Australia,,-35.4475,148.285,,,,yes,no,,,,,,yes,yes
The Ponds Camp,,,,,Australia,,-30.11083,150.5975,,,,no,,,,,,,,
The Retreat Hotel Rest Area,,,,,Australia,,-21.4795582,148.8113809,,,,,,,,,,,,
Vittoria / The Rocks Rest Area,,,,,Australia,,-33.43222,149.38,,,,yes,no,,,,,,,
The Shanty Reserve,,,,,Australia,,-35.1125,147.52083,,,,,,,,,,,,
Stringers,,,,,Australia,,-32.8043859,116.1089684,,,https://exploreparks.dbca.wa.gov.au/site/stringers-campground,yes,,,,,,,yes,no
Theldarpa Station,,,,,Australia,,-29.65472,141.48306,,,,,,,,,,,,
Thirsty Point Reserve,,,,,Australia,,-30.5091258,115.0587727,,,,,,,,,,,,
Thornton Centenary Park,,,,,Australia,,-27.798065,152.374229,,,,,,,,,,,,
Three Mile Dam Campground,NSW National Parks and Wildlife Service,,,,Australia,,-35.88833,148.44889,,,https://www.nationalparks.nsw.gov.au/camping-and-accommodation/campgrounds/three-mile-dam-campground,yes,no,,,,,,yes,yes
Three Mile Pool,,,,,Australia,,-21.76222,114.95139,,,,,,,,,,,,
Three Waters High Country Holidays,,,,,Australia,,-29.62,151.72944,,,,,,,,,,,,
Thungutti Camping Area,,,,,Australia,,-30.50056,152.3875,,,,yes,no,,,,,,,
Thureau Hills Camping Area,,,,,Australia,,-42.14361,145.65083,,,,,no,,,,,,yes,yes
Tiaro Memorial Park,,,,,Australia,,-25.7286426,152.5843753,,,,,,,,,,,,
Tickera North,,,,,Australia,,-33.7577075,137.7306062,,,,,,,,,,,,
Tilmouth Well Roadhouse,,,,,Australia,,-22.8091248,132.5982057,,,,,,,,,,,,
Tilpa Weir,,,,,Australia,,-30.91944,144.45806,,,,,,,,,,,,
Timber Creek Caravan Park,,,,,Australia,,-15.6610021,130.4806833,,,,,,,,,,,,
Tintinara South Rest Area,,,,,Australia,,-35.93806,140.12417,,,,,,,,,,,,
Tiparra Rocks,,,,,Australia,,-34.28611,137.49889,,,,,,,,,,,,
Tipperary Flat Park,,,,,Australia,,-26.6804301,151.9953755,,,,yes,no,,yes,no,public,,no,yes
Tippipila Creek Bush Camp,,,,,Australia,,-26.995,139.01694,,,,,,,,,,,,
Tjukayirla Roadhouse,,,,,Australia,,-27.1549301,124.5736289,,,,,,,,,,,,
Toalki Rest Area,,,,,Australia,,-27.03444,149.08278,,,,yes,,,,,,,,
Tolderodden Campground,Queensland Parks,,,,Australia,,-25.3762495,151.0875429,,,,yes,no,,,,,,yes,yes
Tolderol Game Reserve,,,,,Australia,,-35.37528,139.14861,,,,,,,,,,,,
North of Tomingly Creek Rest Area,,,,,Australia,,-32.52194,148.2786038,,,,no,,,,,,,,
Tomingley South Rest Area,,,,,Australia,,-32.5942422,148.2203395,,,,yes,,,,,,,yes,yes
Tongaboo Rest Area - Southbound,,,,,Australia,,-35.5732848,145.6157543,,,,no,,,,,,,,yes
Tongaboo Rest Area - Northbound,,,,,Australia,,-35.5768158,145.6100119,,,,no,,,,,,,,yes
Tonganmain Reserve,,,,,Australia,,-34.47139,145.63861,,,,,,,,,,,,
Toobeah Park Rest Area - SC Only 20Hrs,Goondowindi Regional Council,,,,Australia,,-28.4167765,149.8714418,,,,yes,,,,,,,,
Toogoolawah Lions Park,,,,,Australia,,-27.09306,152.37972,,,,,,,,,,,,
Tookey Creek Rest Area,,,,,Australia,,-29.87444,149.78861,,,,yes,no,,,,,,,
Tooloom Falls Campground,,,,,Australia,,-28.5124595,152.5266861,,,,yes,no,,no,no,no,,yes,yes
Toorumbee Rest Area,,,,,Australia,,-27.9685133,148.9382156,,,,yes,no,,,,,,,
Top Camp Campground,,,,,Australia,,-40.84278,148.20333,,,,yes,no,,,,,,yes,yes
Top Springs Roadhouse Caravan Park,,,,,Australia,,-16.54333,131.79694,,,,,,,,,,,,
Torrington Caravan Park,,,,,Australia,,-29.31083,151.69667,,,,,,,,,,,,
Tower Layby,,,,,Australia,,-18.1525,140.09667,,,,,,,,,,,,
Tocumwal Town Beach Primitive Camping Area,,,,,Australia,,-35.8181874,145.5595456,,,,,,,,,,,,
Towns River,Northern Teritory National Parks,,,,Australia,,-15.03611,135.21944,,,,yes,,,,,,,yes,yes
Towong Reserve,Snowy Valleys Council,,,,Australia,,-36.1237186,147.9975621,,,,,,,,,,,yes,yes
Tractor Beach,,,,,Australia,,-32.87028,134.11306,,,,,,,,,,,,
Trayning Caravan Park,Shire of Trayning,,,,Australia,,-31.1113572,117.7936128,,,,yes,yes,,,yes,yes,,yes,yes
Trentham Cliffs Caravan Village,,,,,Australia,,-34.22472,142.24722,,,,,,,,,,,,
Trezona Campground,,,,,Australia,,-31.3324192,138.6237288,,,,,,,,,,,,
Trial Bay Campground,,,,,Australia,,-30.87806,153.07111,,,https://www.nationalparks.nsw.gov.au/camping-and-accommodation/campgrounds/Trial-Bay-Gaol-campground,,,,,,,,,
Trig Campground,,,,,Australia,,-35.64972,138.215,,,,,,,,,,,,
Trigwell Bridge,,,,,Australia,,-33.67417,116.59833,,,,,,,,,,,,
Trilby Station,,,,,Australia,,-30.63889,144.94278,,,,,,,,,,,,
Tropic of Capricorn Rest Area,,,,,Australia,,-23.4418046,133.8326267,,,,yes,no,,,,,,yes,yes
Troubridge Hill Camping Reserve,,,,,Australia,,-35.1660802,137.6446162,,,,,,,,,,,,
Trundle Showgrounds,Trundle P & A Society,,,,Australia,,-32.9248428,147.7003753,,,,yes,yes,,,yes,yes,,yes,yes
Trunkey Creek Showground,Bathurst Regional Council,,,,Australia,,-33.8173723,149.3250919,,,,yes,yes,,,yes,,,yes,yes
Truro Rest Area,,,,,Australia,,-34.40833,139.13583,,,,no,,,,,,,,
Tuena Recreation Camping Reserve,Upper Lachlan Shire Coumcil,,,,Australia,,-34.0148893,149.3269166,+61 2 4834 5235,,,yes,yes,,,yes,yes,,yes,yes
Tullah Lakeside Park,,,,,Australia,,-41.73722,145.61694,,,,,,,,,,,,
Tullamore Showgrounds,Tullamore PA and H Association Inc.,,,,Australia,,-32.6274807,147.5697949,+61 2 6892 5194,,,yes,yes,,,yes,yes,,yes,yes
Tullibigeal Pioneer Park,,,,,Australia,,-33.42111,146.72778,,,,,,,,,,,,
Tullibigeal Sportsground,,,,,Australia,,-33.41667,146.72444,,,,,,,,,,,,
Turlee Station Stay,,,,,Australia,,-33.94556,143.05278,,,,,,,,,,,,
Tycannah Rest Area,,,,,Australia,,-29.59972,149.81028,,,,no,,,,,,,,
Uarbry Hall,,,,,Australia,,-32.04528,149.76472,,,,,,,,,,,,
Upper Limestone Creek,,,,,Australia,,-22.59833,139.71806,,,,,,,,,,,,
Urbenville Forest Park,Forestry Corporation of NSW,,,,Australia,,-28.46833,152.54889,,,,yes,no,,,,,,yes,yes
Valley Campground,,,,,Australia,,-31.5874716,116.2420584,,,,,,,,,,,,
Venus Bay Wharf,,,,,Australia,,-33.23194,134.67278,,,,,,,,,,,,
Victoria River Roadhouse,,Victoria Highway,,NT,Australia,0852,-15.6168934,131.1280939,+61 8 8975 0744,,,,,,,,,,,
Violet Hill Campground,,,,,Australia,,-32.47111,152.32694,,,,,,,,,,,,
Virgin Rock / Lions Park Rest Area,Central Highlands Regional Council,,,,Australia,,-24.0936118,148.0964391,,,,yes,no,,,,,,,yes
Waddi Farm Resort,,,,,Australia,,-30.49944,115.50194,,,,,,,,,,,,
Wagin Caravan Park,Shire of Wagin,,,,Australia,,-33.31083,117.33472,,,,yes,yes,,,yes,yes,,yes,yes
Waitpinga Campground,,,,,Australia,,-35.6281342,138.5007424,,,,,,,,,,,,
Wakool River,,,,,Australia,,-34.94639,143.47806,,,,no,,,,,,,,
Wal's Camp,,,,,Australia,,-20.71611,140.49639,,,,,,,,,,,,
Walardi Campground - Sites 1-26,,,,,Australia,,-17.5223179,128.3006135,,,,yes,no,,no,no,no,,yes,yes
Walkabout Hotel,,,,,Australia,,-21.2726102,141.289767,,,,,,,,,,,,
Walker Flat Boat Ramp Reserve,,,,,Australia,,-34.7521486,139.5618627,,,,,,,,,,,,
Walkers Rocks Campground,District Council of Elliston,,,,Australia,,-33.5607041,134.85649,,,,yes,yes,,,,,,,
Wallabadah Freedom Camp,Liverpool Plains Shire Council,,,,Australia,,-31.5362631,150.8320026,,,,yes,yes,,,no,,,yes,yes
Wallaby Rocks Crossing,,,,,Australia,,-33.07472,149.64972,,,,,,,,,,,,
Wallacetown Rest Area,,,,,Australia,,-34.9594092,147.448676,,,,,,,,,,,,
Wallaroi Creek Rest Area,,,,,Australia,,-33.209054,147.1031716,,,,,,,,,,,,
Wallaroo Jetty,,,,,Australia,,-33.92833,137.62139,,,,,,,,,,,,
Wallaroo Truck Marshalling Area,,,,,Australia,,-33.93444,137.62167,,,,,,,,,,,,
Wallum Reserve,,,,,Australia,,-24.13806,151.19583,,,,,,,,,,,,
Wallum Reserve,,,,,Australia,,-25.0589483,152.2304795,,,,,,,,,,,,
Wallumbilla Creek,,,,,Australia,,-26.92083,149.22389,,,,,,,,,,,,
Wallumbilla Showgrounds,Maranoa Regional Council,,,,Australia,,-26.5871228,149.1797901,,,,yes,yes,,,,yes,,,
Walpole Park,,,,,Australia,,-27.87222,151.27417,,,,,,,,,,,,
Wandering Caravan Park,,,,,Australia,,-32.68417,116.67472,,,,,,,,,,,,
Wandina Station Stay,,,,,Australia,,-27.98611,115.63139,,,,,,,,,,,,
Wanganella Weir,,,,,Australia,,-35.2175,144.80722,,,,,,,,,,,,
Wangary Rest Area,,,,,Australia,,-34.511559,135.4709405,,,,,,,,,,,,
Wangi Falls Campground,,,,,Australia,,-13.16222,130.68056,,,,,,,,,,,,
Robert Hindmarsh (Wannamal) Rest Area,Shire of Chittering,,,,Australia,,-31.1644556,116.0580438,,,,yes,no,,,,,,,
Warakurna Roadhouse,,,,,Australia,,-25.0435741,128.3024669,,,,,,,,,,,,
Waratah Camping Ground,,,,,Australia,,-41.4450626,145.5311659,,,https://www.warwyn.tas.gov.au/page.aspx?u=390,yes,yes,,,,,,yes,yes
Warburton Rest Area,,,,,Australia,,-26.1319578,126.56806,,,,,,,,,,,,
Ward River,,,,,Australia,,-26.4920715,146.0994238,,,,no,,,,,,,,
Warloch Rest Area,,,,,Australia,,-15.2363244,133.1147839,,,,,,,,,,,,
Warooka Caravan & Camping Ground,,,,,Australia,,-34.99222,137.39806,,,,,,,,,,,,
Warooka Rest Area,,,,,Australia,,-34.9913919,137.4013178,,,,,,,,,,,,
Warrabah Camping Area,,,,,Australia,,-30.5685648,150.9158518,,,,,,,,,,,,
Warraweena Conservation Park,,,,,Australia,,-30.76778,138.63667,,,,,,,,,,,,
Warrego Wines,,,,,Australia,,-27.5658843,152.6127221,,,,,,,,,,,,
Warren Gorge,,,,,Australia,,-32.182621,138.0074675,,,,,,,,,,,,
Warren North Rest Area,Transport for NSW,,,,Australia,,-31.6671207,147.8578339,,,,no,,,,,,,yes,yes
Warrina Siding,,,,,Australia,,-28.19389,135.82833,,,,,,,,,,,,
Warroo Bridge,,,,,Australia,,-27.6427768,148.7411136,,,,,,,,,,,,
Warrow North Rest Area,,,,,Australia,,-34.2659463,135.4224046,,,,,,,,,,,,
The Warrumbungles Bushland Retreat,,,,,Australia,,-31.26889,149.16667,,,,,,,,,,,,
200 Mile Tank Rest Area,Free overnight camping permitted  Boil water before drinking  Fireplace  picnic tables,,,,Australia,,-27.4142471,114.6670669,,,,,,,,,,,,
Waterpark Creek Campground,,,,,Australia,,-22.83556,150.67222,,,,,,,,,,,,
Watraba Parking Area,,,,,Australia,,-31.9407871,133.274913,,,,no,,,,,,,,
Wattle Flat Racecourse,Bathurst Regional Council,,,,Australia,,-33.1765925,149.7088377,,,,yes,no,,,,,,yes,yes
Wauraltee Beach,YOrke Peninsula Council,,,,Australia,,-34.58778,137.50778,,,,,,,,,,,,
Waverley Creek Rest Area,,,,,Australia,,-22.4392513,149.4756432,,,,,,,,,,,,
Wawirra Creek,,,,,Australia,,-32.3990054,140.0926318,,,,no,,,,,,,,
Wedina Well Campground,,,,,Australia,,-33.08778,134.32833,,,,,,,,,,,,
Wee Waa Showground,,,,,Australia,,-30.2172233,149.4492275,,,,yes,yes,,,yes,yes,,yes,yes
Weengallon Rest Area,,,,,Australia,,-28.3584298,149.0553643,,,,yes,,,,,,,,
Weetootla Gorge Campground,,,,,Australia,,-30.49694,139.25917,,,,,,,,,,,,
Weipa Camping Ground & Fishing Lodge -,,,,,Australia,,-12.6384773,141.8607228,,,,,,,,,,,,
Wellington Dam Road Rest Area,,,,,Australia,,-33.31944,115.98111,,,,,,,,,,,,
Wells Crossing,Ashford Lions,,,,Australia,,-29.36222,151.14333,,,,no,no,,,,,,,
West Kunderang Wilderness Retreat,,,,,Australia,,-30.84389,152.07667,,,,,,,,,,,,
Sandilands Rest Area,Transport for NSW,,,,Australia,,-28.90056,152.65417,,,,yes,no,,,,,,,
West Wyalong Showgrounds,,,,,Australia,,-33.93833,147.21389,,,,,,,,,,,,
Westonia Caravan Park,,,,,Australia,,-31.3045403,118.6973057,,,,,,,,,,,,
Westwood Rest Area,,,,,Australia,,-23.6218925,150.1562927,,,,,,,,,,,,
Whalebone Bay,,,,,Australia,,-26.129395,113.640604,,,,,,,,,,,,
Whaling Station,,,,,Australia,,-34.9109486,135.6890168,,,,,,,,,,,,
Wharf Reserve,,,,,Australia,,-32.59083,151.77778,,,,,,,,,,,,
Wharminda Soaks Picnic Area,,,,,Australia,,-33.93083,136.16306,,,,,,,,,,,,
Whiporie General Store,Whiporie General Store,,,,Australia,,-29.2828599,152.9889638,,,,yes,no,,,no,,,,
Whistleduck Creek,,,,,Australia,,-20.63639,134.77944,,,,,,,,,,,,
White Cliffs Opal Pioneer Tourist Park,,,,,Australia,,-30.84944,143.08972,,,,yes,yes,,,,,,,
White Wells,,,,,Australia,,-29.8360954,116.9456283,,,,,,,,,,,,
Whitton Beach Camp,NSW National Parks and Wildlife Service,,,,Australia,,-34.6229652,146.2109898,,,,,,,,,,,,
Wilbinga Grove,,,,,Australia,,-31.3724724,115.6206751,,,,no,,,,,,,,
Wild River Caravan Park,,,,,Australia,,-17.3675,145.38889,,,,yes,yes,,,yes,,,,
Wilga Bush Campground,Western Downs Regional Council,,,,Australia,,-27.3336256,151.0976399,,,,yes,no,,,no,,,,
Will's Grave,,,,,Australia,,-27.75667,140.60306,,,,,,,,,,,,
Willalooka Roadhouse Rest Area,,,,,Australia,,-36.3915741,140.3505353,,,,,,,,,,,,
Willandra Campground,,,,,Australia,,-33.19333,145.11806,,,,,,,,,,,,
Willangi Bush Escapes,,,,,Australia,,-32.98444,138.83139,,,,,,,,,,,,
Willare Bridge Roadhouse Caravan Park -,,,,,Australia,,-17.72639,123.65417,,,,,,,,,,,,
William Creek Road,,,,,Australia,,-29.03417,134.82222,,,,,,,,,,,,
Williams River Caravan Park,,,,,Australia,,-32.5827869,151.7829035,+61 2 4996 4231,,,yes,yes,,,yes,yes,,yes,yes
Willie Creek,Free camp,,,,Australia,,-17.75917,122.21111,,,,,,,,,,,,
Willie Retreat Macquarie Marshes,,,,,Australia,,-30.9044503,147.4844657,,,,,,,,,,,,
Willow Park,,,,,Australia,,-34.28778,146.03194,,,,,,,,,,,,
Willow Springs Station,,,,,Australia,,-31.44889,138.75889,,,,,,,,,,,,
Willow Waters Bush Camping,,,,,Australia,,-31.9005203,138.6104902,,,,,,,,,,,,
Wilroy Nature Reserve,,,,,Australia,,-28.63972,115.64889,,,,,,,,,,,,
Wilson Creek Rest Area,,,,,Australia,,-19.8346973,147.594288,,,,no,,,,,,,,
Wilson River Reserve Camp,Bulloo Shire Council,,,,Australia,,-27.82111,142.59056,,,,yes,yes,,,,,,,
Winbin East Rest Area,,,,,Australia,,-26.6376726,144.7963911,,,,yes,no,,,,,,,
Wind Farm Lookout Parking Area,,,,,Australia,,-28.9025845,114.8925912,,,,,,,,,,,,
Windsor Rest Area,,,,,Australia,,-28.0276373,118.5247415,,,,,,,,,,,,
Wingadee Rest Area,,,,,Australia,,-30.46806,148.19444,,,,yes,no,,,,,,,
Wings Wildlife Park Accommodation,Wings Wildlife Park,,,,Australia,,-41.2630439,146.0458322,,,https://www.wingswildlifepark.com.au/accommodation,yes,yes,,,yes,,,yes,yes
Winnininnie Creek,,,,,Australia,,-32.5442165,139.6551933,,,,no,,,,,,,,
Wintermoon Way Camping Oasis,,,,,Australia,,-20.96306,148.69639,,,,yes,yes,,,,,,,
Wirreandi Campground Naracoorte,,,,,Australia,,-37.04278,140.80139,,,,,,,,,,,,
Wirrulla West Rest Area,,,,,Australia,,-32.41139,134.44222,,,,no,,,,,,,,
Witera Rest Area,,,,,Australia,,-33.0933284,134.5909381,,,,no,,,,,,,,
Wittelbee Conservation Park,,,,,Australia,,-32.2010988,133.7445349,,,,,,,,,,,yes,yes
Wogarno Station,,,,,Australia,,-28.38361,117.68222,,,,,,,,,,,,
Wollomombi Rest Area,No camping sign present,,,,Australia,,-30.51167,152.04444,,,,yes,no,,,,,,,
Wollondilly River Station,,,,,Australia,,-34.3061538,150.0670241,,,http://www.wollondillyriverstation.com/,,,,,,,,,
Womallilla Creek,,,,,Australia,,-26.7722224,148.0308246,,,,no,,,,,,,yes,yes
Wonarah Bore,,,,,Australia,,-19.8425,136.15639,,,,,,,,,,,,
Wondai North Rest Area,,,,,Australia,,-26.287983,151.8660624,,,,,,,,,,,,
Wonga Beach Caravan and Camping Park,,,,,Australia,,-16.3466548,145.4149184,,,,,,,,,,,,
Wongi Waterholes Camping Area,,,,,Australia,,-25.4375,152.54361,,,,,,,,,,,,
Woodlands Rest Area,,,,,Australia,,-27.26639,148.05444,,,,no,,,,,,,,
Woogenilup North Rest Area,,,,,Australia,,-34.5255085,118.0293206,,,,no,,,,,,,,
Woolbrook Rest Area,,,,,Australia,,-30.96528,151.34722,,,,yes,no,,,,,,yes,yes
Wooleen Station,,,,,Australia,,-27.08722,116.16,,,,,,,,,,,,
Woolshed Flat Rest Area,,,,,Australia,,-32.4625,137.96861,,,,,,,,,,,,
Woorlba Homestead Rest Area,,,,,Australia,,-32.4375695,124.1046127,,,,yes,no,,,,yes,,,
Dalton Park / Wooroolin Rest Area,,,,,Australia,,-26.4113281,151.8157287,,,https://visitsouthburnett.com.au/directory/placestostay/wooroolin-48-hour-free-caravan-stop/,yes,yes,,,,no,,yes,yes
Wootton Rest Area,,,,,Australia,,-32.29389,152.30389,,,,,,,,,,,,
Wubin Rest Area,,,,,Australia,,-30.1069234,116.6310296,,,,yes,no,,,,,,,
Wubin Rocks,,,,,Australia,,-30.0645329,116.675648,,,,no,,,,,,,,
Wudinna East Rest Area,,,,,Australia,,-33.0848459,135.5009437,,,,no,,,,,,,,
Wuggubun Aboriginal Community Campground,,,,,Australia,,-15.95361,128.37917,,,,,,,,,,,,
Wunara Store Rest Area,,,,,Australia,,-19.98222,136.61861,,,,,,,,,,,,
Wuruma Dam,,,,,Australia,,-25.18111,150.98722,,,,,,,,,,,,
World War 2 Rest Area,,,,,Australia,,-20.3730298,139.2646249,,,,yes,no,,,,yes,,,
Wyalkatchem Caravan Park,,,,,Australia,,-31.18361,117.38111,,,,,,,,,,,,
Reflections Wyangala Waters - Holiday Park,Reflections Holidays,,,,Australia,,-33.96278,148.95472,+61 2 6345 0877,wyangalawaters@reflectionsholidays.com.au,https://reflectionsholidays.com.au/parks/wyangala-waters/,,,,,,,,yes,yes
Yachting Point,,,,,Australia,,-35.51083,148.2675,,,,yes,no,,no,no,no,,yes,yes
Bulga Creek Rest Area,,,,,Australia,,-31.6074375,148.7544556,,,,no,,,,,,,,
Yalgogrin Rest Area,,,,,Australia,,-33.84472,146.82889,,,,no,no,,,,,,,
Yallakool Tourist Park,,,,,Australia,,-26.305,151.99444,,,,,,,,,,,yes,yes
Yallunda Flat Showgrounds,,,,,Australia,,-34.3490698,135.8808385,,,,yes,no,,,no,,,,
Yandilla Station Camping & Farmstay,,,,,Australia,,-26.7847321,152.5664013,,,,,,,,,,,,
Yang Yang (Maude) Campspot,,,,,Australia,,-34.47778,144.29694,,,,no,no,,,,,,,
Yaninee Rest Area,,,,,Australia,,-32.9319439,135.2400291,,,,,,,,,,,,
Yanko Creek Rest Area,,,,,Australia,,-35.1465119,145.7721913,,,,no,,,,,,,,
Yantanabie South Rest Area,,,,,Australia,,-32.5533074,134.6725536,,,,no,,,,,,,,
Yarla Kutjarra Rest Area,,,,,Australia,,-25.6101587,127.2243397,,,,,,,,,,,,
Yarragil Campground,,,,,Australia,,-32.8049627,116.1246871,,,https://parks.dpaw.wa.gov.au/site/yarragil-campground,yes,no,,,,,,only,no
Yarrie Lake,,,,,Australia,,-30.36861,149.51806,,,,,,,,,,,,
Ye Olde Buckland Inn,Bar which makes a large field freely available for camping.,,,,Australia,,-42.6066098,147.7200443,+61 3 6257 5114,,,,,,,,,,,
Yelarbon Recreation Ground,,,,,Australia,,-28.5759623,150.7568121,,,,yes,yes,,yes,,yes,,yes,yes
Yeldnuckie Weir,,,,,Australia,,-33.6930334,136.5435805,,,,yes,no,,,,,,,
Yellow Bus Camp,,,,,Australia,,-28.99667,140.50583,,,,,,,,,,,,
Yellow Pinch Dam,,,,,Australia,,-36.85111,149.81222,,,,,,,,,,,,
Yeoval Caravan Rest,Yeoval Show Society,,,,Australia,,-32.7424206,148.6449339,,,,,,,,yes,yes,,yes,yes
Yerdani Well,,,,,Australia,,-31.138688,120.6271472,,,,no,,,,,,,,
Yetman Caravan Park,Inverell Shire Council,,,,Australia,,-28.9013534,150.7782836,,,,yes,yes,,,yes,,,yes,yes
Yolde Campground,NSW National Parks and Wildlife Service,,,,Australia,,-35.53833,148.29528,,,,yes,no,,,,,,yes,yes
Yorketown Community Caravan Park,,,,,Australia,,-35.02028,137.61028,,,,,,,,,,,,
Youngoona Campground,,,,,Australia,,-31.33083,138.65583,,,,,,,,,,,,
Yuelamu Roadside Stop,,,,,Australia,,-22.46667,132.1025,,,,,,,,,,,,
Yuna Hall,,,,,Australia,,-28.32667,115.00444,,,,,,,,,,,,
Yunta Recreation Ground,,,,,Australia,,-32.5784052,139.5687603,,,,no,,,,,,,,
Unknown,,,,,Australia,,-19.3217302,134.8496561,,,,,,,,,,,,
40 Mile,,,,,Australia,,-20.8404512,116.3473087,,,https://karratha.wa.gov.au/camping,,,,,,,,,
12 Mile Dam Rest Area,,,,,Australia,,-23.6560579,144.5086907,,,,yes,no,,,,,,,yes
Unknown,,,,,Australia,,-25.96667,152.99833,,,,,,,,,,,,
3 O'Clock Creek Campsite,,,,,Australia,,-26.4606608,135.4108483,,,,,,,,,,,,
Unknown,,,,,Australia,,-29.45444,151.85611,,,,,,,,,,,,
7 Oaks,,,,,Australia,,-29.6846559,151.2822638,,,,,,,,,,,,
150 Meridian Rest Area,,,,,Australia,,-31.06278,149.99861,,,,no,,,,,,,yes,yes
Unknown,,,,,Australia,,-34.56194,139.60028,,,,,,,,,,,,
Kempton Roadside Rest Area,"self contained only, contact council for toilets/showers",,,,Australia,,-42.5317246,147.2021476,,,,yes,yes,,,yes,,,,
Karte,,,,,Australia,,-35.0905315,140.7367514,,,,,,,,,,,,
Moonlight Dam Camping Area,,,,,Australia,,-21.4095391,148.5037628,,,,,,,,,,,,
Via Ampol Nebo,,,,,Australia,,-21.6837914,148.6918046,,,,,,,,,,,,
Gracetown Caravan Park,,,,,Australia,,-33.8578544,115.0170327,,,,,,,,,,,,
Junction Camping Grounds,,,,,Australia,,-30.0699321,152.7577252,,,,,,,,,,,,
Mary Kathleen Caravan Park,,,,,Australia,,-20.7836311,139.9788757,,,,,,,,,,,,
Unknown,,,,,Australia,,-34.8840188,118.4055912,,,,,,,,,,,,
Buff Creek,,,,,Australia,,-25.5206235,152.9769024,,,,no,,,,,,,,
Cooloolio Creek,,,,,Australia,,-25.7860651,153.0300268,,,,no,,,,,,,,
Deep Creek,,,,,Australia,,-25.5132398,152.9873908,,,,no,,,,,,,,
Dundubara Camping Area,,,,,Australia,,-25.165262,153.2827779,,,,,,,,,,,,
Garry's Anchorage,,,,,Australia,,-25.6311484,152.9749688,,,,no,,,,,,,,
Garulim Camping Area,,,,,Australia,,-25.7488374,153.0847535,,,,no,,,,,,,,
Hiker's Camp,,,,,Australia,,-25.6801393,153.0646827,,,,,,,,,,,,
Snout Point,,,,,Australia,,-25.7142474,152.9900929,,,,no,,,,,,,,
Cathedral Beach,,,,,Australia,,-25.2186363,153.2564967,,,,,,,,,,,,
Unknown,,,,,Australia,,-25.2457797,153.2456824,,,,,,,,,,,,
Unknown,,,,,Australia,,-25.6579514,152.9785482,,,,no,,,,,,,,
Unknown,,,,,Australia,,-37.3388583,146.9318951,,,,,,,,,,,,
Grant Township Camping Area,,,,,Australia,,-37.3438914,147.1558374,,,,,,,,,,,,
Unknown,,,,,Australia,,-37.3050578,146.4258802,,,,,,,,,,,,
Unknown,,,,,Australia,,-37.5017162,146.9537456,,,,,,,,,,,,
Unknown,,,,,Australia,,-37.6126396,147.0440875,,,,,,,,,,,,
Unknown,,,,,Australia,,-37.6166013,147.0303083,,,,,,,,,,,,
Unknown,,,,,Australia,,-37.4061902,147.1682987,,,,,,,,,,,,
Mt Murray Campsite,,,,,Australia,,-37.0654887,146.9915466,,,,,,,,,,,,
Unknown,,,,,Australia,,-36.8922178,146.6033759,,,,,,,,,,,,
Unknown,,,,,Australia,,-36.986261,146.7980619,,,,,,,,,,,,
Unknown,,,,,Australia,,-37.189074,146.982962,,,,,,,,,,,,
Fourways,,,,,Australia,,-41.5783865,145.8595149,,,,,,,,,,,yes,no
Pandani Grove,,,,,Australia,,-41.591458,145.8699638,,,,,,,,,,,yes,no
Unknown,,,,,Australia,,-37.206867,146.6736744,,,,,,,,,,,,
Kia Ora Hut Group Camping Platform,,,,,Australia,,-41.8917873,146.0813293,,,https://www.parks.tas.gov.au/file.aspx?id=36845,yes,no,,,,,,yes,no
Auski Tourist Village,,,,,Australia,,-22.3768043,118.69044,+61 8 9176 6988,,,yes,,,yes,yes,,,,
Ridge Top Campground,,,,,Australia,,-33.5938828,151.1351963,,,,,no,,,,,,yes,no
Mt Wondabyne Campsite,,,,,Australia,,-33.4961176,151.2745428,,,,,no,,,,,,yes,no
Unknown,,,,,Australia,,-37.9990344,146.4716683,,,,,,,,,,,,
Unknown,,,,,Australia,,-37.9995163,146.4729182,,,,,,,,,,,,
Unknown,,,,,Australia,,-36.3720954,146.7574423,,,,,,,,,,,,
Upper Jamieson Hut Campsite,,,,,Australia,,-37.2573264,146.44825,,,,,,,,,,,,
Knowsley Rest Area,,,,,Australia,,-36.8939041,144.5293176,,,,,,,,,,,,
Knowsley Rest Area,,,,,Australia,,-36.9499636,144.4984511,,,,,,,,,,,,
Explorers Caravan Park,,,,,Australia,,-27.9973013,143.8193692,,,,,,,,,,,,
McFarlane Saddle,,,,,Australia,,-37.4746888,146.8494626,,,,,,,,,,,,
Riverbend Caravan Park and Chalets,,Riverbend Lane,,,Australia,6333,-34.9448585,117.3616906,,,,,,,,,,,,
Apex Camp Greenup,,,,,Australia,,-28.465871,151.2554079,,,,,,,,,,,,
Rainbow Valley Bush Campground,NT Parks,,,,Australia,,-24.3298992,133.6296256,,,https://nt.gov.au/parks/find-a-park/rainbow-valley-conservation-reserve,,,,,,,,yes,yes
Unknown,,,,,Australia,,-33.5673027,150.8903777,,,,,,,,,,,,
Carnarvon National Park Camp Ground,,,,,Australia,,-25.0599278,148.2386304,,,,,,,,,,,,
Unknown,,,,,Australia,,-29.2686273,152.4295461,,,,,,,,,,,,
Unknown,,,,,Australia,,-28.9958921,141.0006168,,,,,,,,,,,,
Horse Swamp Campground,NSW National Parks and Wildlife Service,,,,Australia,,-31.9266832,151.3873061,,,,,,,,,,,,
Little Murray Campground,NSW National Parks and Wildlife Service,,,,Australia,,-31.9815313,151.458882,,,,,,,,,,,,
Bottle Bay,,,,,Australia,,-25.546,113.4904356,,,https://exploreparks.dbca.wa.gov.au/site/bottle-bay-campground,,,,no,,,,yes,
Casuarina Camping Area,,,,,Australia,,-33.0582667,151.3347333,,,,yes,no,yes,yes,no,,,yes,yes
Licola Caravan Park,,,,,Australia,,-37.6274685,146.624041,,,,,,,,,,,,
Licola Wilderness Village,,,,,Australia,,-37.6284924,146.6216512,,,,,,,,,,,,
Armstrong Creek Camping Area,,,,,Australia,,-25.1202897,130.2178359,,,,,,,,,,,,
Hunt Park Camping Area,,,,,Australia,,-25.165501,130.4117995,,,,,,,,,,,,
Mulga Bush Camp Site,,,,,Australia,,-25.160729,130.3672671,,,,,,,,,,,,
Unknown,,,,,Australia,,-23.3406699,119.7442979,,,,,,,,,,,,
Forrest's Camp 59,,,,,Australia,,-25.74108,124.18446,,,,,,,,,,,,
Neale Junction Camping Area,,,,,Australia,,-28.303434,125.8148774,,,,,,,,,,,,
Camping Area,,,,,Australia,,-28.3259667,127.0487,,,,,,,,,,,,
Camping Area,,,,,Australia,,-28.4081833,128.0260333,,,,,,,,,,,,
Ilkurlka Camping Facility,,,,,Australia,,-28.3490958,127.517366,,,,,,,,,,,,
Unknown,,,,,Australia,,-28.5642715,130.6863178,,,,,,,,,,,,
Tallaringa Native Well Camping Area,,,,,Australia,,-29.0277778,133.2863889,,,,,,,,,,,,
Unknown,,,,,Australia,,-28.3698131,125.3532446,,,,,,,,,,,,
Longreach Caravan Park,,Ibis Street,,,Australia,,-23.4458066,144.2422103,+61 7 4658 1770,,,,,,,yes,,,,
Point Sunday Camping Area,,,,,Australia,,-28.1238252,124.082393,,,,,,,,,,,,
Yeo Camping Area,,,,,Australia,,-28.0766667,124.3180556,,,,,,,,,,,,
Kalkaringi Caravan Park,,,,,Australia,,-17.4470364,130.8341819,,,,,,,,,,,,
Balladonia Roadhouse Caravan Park,,,,,Australia,,-32.3525846,123.6184826,,,,,,,,,,,,
Unknown,,,,,Australia,,-32.5816123,115.666335,,,,,,,,,,,,
Yalgarup Echo Park,,,,,Australia,,-32.6378172,115.6200903,,,,,,,,,,,,
Border Village Caravan Park,,,,,Australia,,-31.6395966,129.0042246,,,,,,,,,,,yes,
Nundroo Hotel Motel Caravan Park,,,,,Australia,,-31.7927854,132.2259038,,,,,,,,yes,,,yes,
Moonta Bay Cabins,,,,,Australia,,-34.063607,137.562529,,,,,,,,,,,,
Unknown,,,,,Australia,,-34.9846078,137.3598815,,,,,,,,,,,,
Apollo Bay Recreational Reserve,,,,,Australia,,-38.7639607,143.6672987,,,,,,,,,,,,
Ocean Grove,,,,,Australia,,-38.2783736,144.5005905,,,,,,,,,,,,
Unknown,,,,,Australia,,-41.153658,146.564706,,,,,,,,,,,,
Unknown,,,,,Australia,,-41.3119458,148.3127316,,,,,,,,,,,,
Balnarring Beach Camping Reserve,,,,,Australia,,-38.3924557,145.1217388,,,,,,,,,,,,
Beach Haven Caravan Park,,,,,Australia,,-38.5220704,145.364509,,,,,,,,,,,,
San Remo Holiday Park,,,,,Australia,,-38.5219637,145.3673717,,,,,,,,,,,,
Foreshore Reserve,,,,,Australia,,-38.3552941,144.7645178,,,,,,,,,,,,
Foreshore Reserve,,,,,Australia,,-38.3668854,144.8073969,,,,,,,,,,,,
Foreshore Reserve,,,,,Australia,,-38.367733,144.8576771,,,,,,,,,,,,
Foreshore Resrve,,,,,Australia,,-38.3687704,144.8146466,,,,,,,,,,,,
Lakes Entrance Tourist Park,,,,,Australia,,-37.8675581,148.0188452,,,,,,,,,,,,
Merricks Camp and Conference Centre,,,,,Australia,,-38.4034786,145.0715521,,,,,,,,,,,,
Merimbula Rv Motor Home Park,,,,,Australia,,-36.8868621,149.8713469,,,,,,,,,,,,
