post_title,post_content,post_address,post_city,post_region,post_country,post_zip,post_latitude,post_longitude,post_tel,post_email,post_website,toilets,shower,bbq,drinking_water,power_supply,sanitary_dump_station,dogs,tents,caravans
Unknown,,,,,Australia,,-41.8103139,146.280085,,,https://parks.tas.gov.au/explore-our-parks/walls-of-jerusalem-national-park/walls-of-jerusalem-multi-day-walk,yes,no,,,,,,yes,no
Unknown,,,,,Australia,,-41.8104532,146.2805819,,,https://parks.tas.gov.au/explore-our-parks/walls-of-jerusalem-national-park/walls-of-jerusalem-multi-day-walk,yes,no,,,,,,yes,no
Unknown,,,,,Australia,,-41.8105106,146.2805329,,,https://parks.tas.gov.au/explore-our-parks/walls-of-jerusalem-national-park/walls-of-jerusalem-multi-day-walk,yes,no,,,,,,yes,no
Unknown,,,,,Australia,,-41.8105694,146.2806878,,,https://parks.tas.gov.au/explore-our-parks/walls-of-jerusalem-national-park/walls-of-jerusalem-multi-day-walk,yes,no,,,,,,yes,no
Chinchilla Weir,Western Downs Regional Council,,,,Australia,,-26.7995661,150.579094,,,,yes,no,,,yes,,,yes,yes
Bananacoast Caravan Park,,,,,Australia,,-30.269192,153.1323159,,,https://bananacoastcaravanpark.com,,,,,,,,,
Strathalbyn Caravan Park,,,,,Australia,,-35.2593579,138.8869053,,,,,,,,,,,,
Barmah Bridge Caravan Park,,,,,Australia,,-36.0177755,144.9553763,,,https://barmahbridgecaravanpark.com.au/,,,,,,,,,
Volunteer Camping (The Prairies),,,,,Australia,,-26.9068709,152.7611019,,,,,,,,,,,,
The Lakes District,,,,,Australia,,-26.9105159,152.7632092,,,,,,,,,,,,
Stallholders' Camping (Grand Canyon),,,,,Australia,,-26.909476,152.7525882,,,,,,,,,,,,
Accessibility Camping,,,,,Australia,,-26.9150907,152.7568712,,,,,,,,,,,,
Accessibility Camping,,,,,Australia,,-26.9154399,152.75723,,,,,,,yes,,,,yes,yes
Season Camping,,,,,Australia,,-26.9153319,152.7614958,,,,,,,,,,,,
Unknown,,,,,Australia,,-41.2271954,146.3077042,,,,,,,,,,,,
Woodside Beach Caravan Park,,Woodside Beach Road,,VIC,Australia,3874,-38.5514806,146.9761497,+61 3 5187 1214,,https://www.woodsidebeachcaravanpark.com.au/,,,,,,,,,
Bluff Creek Campground,Kenilworth Bluff Creek,Wilcox Road,,QLD,Australia,4574,-26.5624408,152.7378087,,,,,,,,,,,,
Davies Beach,,,,,Australia,,-35.8752862,145.6275365,,,,,,,,,,,,
Beaudesert Caravan and Tourist Park,,,,,Australia,,-27.9925901,153.0051171,,,,,,,,,,,,
Figtree Gardens Caravan Park,,,,,Australia,,-34.4413935,150.8594231,,,https://www.figtreepark.com/accommodation,,,,,,,,,
Camping area 1,,,,,Australia,,-34.3672469,150.1113706,,,,,,,,,,,,
Camping area 2,,,,,Australia,,-34.3681993,150.1130417,,,,,,,,,,,,
Marble Bar Holiday Park,,,,,Australia,,-21.1747778,119.7448276,+61 8 9176 1569,,,,,,,,,,,
Unknown,,James Street,,,Australia,,-24.6294865,151.9144632,,,,,,,,,,,,
Unknown,,,,,Australia,,-26.5602806,152.9577809,,,,,,,,,,,,
Unknown,,,,,Australia,,-34.5445998,142.3617052,,,,,,,,,,,,
Nangiloc Caravan Park,,,,,Australia,,-34.456108,142.3432921,,,http://www.nangiloccaravanpark.com.au/,,,,,,,,,
Tallow Beach Campground,booking required,,,,Australia,,-33.5367194,151.3509573,,,https://www.nationalparks.nsw.gov.au/camping-and-accommodation/campgrounds/tallow-beach-campground,yes,no,,,,,,yes,no
Burleigh Beach Tourist Park,,Goodwin Terrace,,,Australia,4220,-28.0918792,153.4548661,,,https://goldcoasttouristparks.com.au/burleighbeach-parkhome,,,,,,yes,,,
Little River Camp,Outdoor Adventure Camps,Doyles Creek Road,,NSW,Australia,2775,-33.3716809,150.9434759,,,,,,,,,,,,
Griffin Forest Reserve,,,,,Australia,,-41.4666384,147.8518266,,,,,,,,,,,,
Griffin Forest Reserve,,,,,Australia,,-41.4697457,147.843047,,,,,,,,,no,,yes,no
BIG4 Red Cliffs Caravan Park,,,,,Australia,,-34.2972721,142.1876537,,,,,,,,,,,,
Sun city Caravan Park,,,,,Australia,,-34.193754,142.1859049,,,,,,,,,,,,
Chinaman Campground and Picnic site,,,,,Australia,,-37.2487411,143.1991046,,,,,,,,,,,,
Tyalgum Diggers Camp Ground,,,,,Australia,,-28.3531147,153.2058769,,,,yes,yes,,,yes,yes,,yes,yes
Mt No. 3 camp area,,,,,Australia,,-37.0575096,146.4250245,,,,,,,,,,,,
Princetown Camping Reserve,,,,,Australia,,-38.6991463,143.1597844,,,,,,,,,,,,
Moss Vale Village Caravan Park,,Willow Drive,,NSW,Australia,2577,-34.5530251,150.3591722,+61 2 4868 1099,,mossvalevillagecaravanpark.com.au,,,,,,,,,
BIG4 Moruya Heads East's Dolphin Beach Holiday Park,,,,,Australia,,-35.918874,150.154042,,,,,,,,,,,,
Strachans Campground,Parks Victoria,,,,Australia,,-37.3760034,142.2821982,,,,,,,,,,,yes,no
Boreang Campground,Parks Victoria,,,,Australia,,-37.1751866,142.4182106,,,,,,,,,,,yes,yes
Aire River West Campground - Otway NP,,,,,Australia,,-38.8020223,143.4766584,,,,,,,,,,,,
Aire River East Campground,,,,,Australia,,-38.8002046,143.4818738,,,,,,,,,,,,
cong camp,,,,,Australia,,-21.8350568,140.913348,,,,,,,,,,,,
Ryans Den (GOW),Parks Victoria,,,,Australia,,-38.7595228,143.2775648,,,https://www.greatoceanwalk.com.au/,,,,,,,,yes,
Unknown,,,,,Australia,,-12.5235015,131.039194,+61 8 8983 1026,,http://coolalingacaravanpark.com.au/,,,,,,,,,
Coolalinga Caravan Park,,,,,Australia,,-12.5221854,131.0393461,+61 8 8983 1026,,http://coolalingacaravanpark.com.au/,,,,,,,,,
Cobbler,,,,,Australia,,-33.4311119,116.0139552,,,,,,,,,,,,
Lameroo Lakeside Caravan Park,,,,,Australia,,-35.3273145,140.521478,,,,,,,,,,,,
Castle Rock Camping Area,,,,,Australia,,-28.8357537,151.9383846,,,http://www.derm.qld.gov.au/parks/girraween/camping.html,,,,,,,,yes,yes
Brucknell Park Scout Camp,,,,,Australia,,-38.4730196,142.8618215,,,,,,,,,,,,
Unknown,,,,,Australia,,-35.9840565,146.628652,,,,,,,,,,,,
Queen Mary Falls Caravan Park,,Spring Creek Road,,,Australia,,-28.3424854,152.3713025,+61 475 143 859,,https://queenmaryfallscaravanpark.com.au/,,,,,,,,,
Point Vernon Holiday Park,,Corser Street,,,Australia,4655,-25.2548469,152.8217295,+61 7 4128 1423,pvhp@bigpond.com,www.pvhp.com.au,,,,,,,,,
Sun Lodge Ocean Front Tourist Park,,Mant Street,,,Australia,4655,-25.248367,152.8093995,+61 7 4128 1692,,beachfronttouristpark.com.au,,,,,,,,,
Kismet Riverside Lodge,,,,,Australia,,-35.9709204,146.591673,,,,,,,,,,,,
Tanglefoot,,,,,Australia,,-37.5103084,145.5360825,,,,,,,,,,,,
Toowoomba Motor Village,,Ruthven Street,,,Australia,,-27.5878652,151.9472624,+61 7 4635 8186,,http://www.toowoombamotorvillage.com.au/,,,,,yes,yes,,,
Thunderbird Park Campgrounds,,,,,Australia,,-27.9037161,153.1821214,,,,,,,,,,,,
Burton's Well Camp Area,,,,,Australia,,-26.8349168,151.5519574,,,,,,,,,,,,
Westcott Camp Area,,,,,Australia,,-26.8641384,151.5716134,,,,,,,,,,,yes,no
Dandabah Campground,,,,,Australia,,-26.8805144,151.5971895,,,,,,,,,,,,
Esk Caravan Park & Brisbane Valley Rail Trail Motel,,,,,Australia,,-27.2394075,152.4235724,,,https://www.eskcaravanpark.com.au/,yes,,,yes,yes,yes,,yes,
Light Line Road Bush Camp,,,,,Australia,,-27.4132976,152.7775269,,,,,,,,,,,yes,no
First Sun Holiday Park,,,,,Australia,,-28.6411306,153.6111753,,,,,,,,,,,,
Brushgrove Recreation Triangle,,,,,Australia,,-29.5663762,153.0784103,,,,,,,,,,,,
The Settlement Camping Area,,,,,Australia,,-28.1943039,153.2721278,,,,yes,no,,yes,no,,,yes,no
Mount Clear Campground,,,,,Australia,,-35.8649058,149.0109262,,,https://actparks.bookeasy.com/mt-clear-campground#/accom/100206,,,,,,,,,
Jenolan Holiday Park,,,,,Australia,,-33.7005562,149.8579682,,,https://www.jenolanholidaypark.com.au/,,,,,yes,,,yes,
Bredbo Inn Hotel Campground,,,,,Australia,,-35.950719,149.1443314,,,,,,,,,,,yes,yes
Barn Hill Caravan Park,,,,,Australia,,-18.366428,122.0380154,,,,,,,yes,yes,,,,
Unknown,,,,,Australia,,-31.6426423,116.6994488,,,,,,,,,,,,
Log Bridge Creek Campsite,,,,,Australia,,-35.1708252,148.6023832,,,,,,,,,,,yes,
Unknown,,,,,Australia,,-40.2285588,148.0316947,,,,,,,,,,,yes,
Well,,,,,Australia,,-33.4034927,116.2421967,,,,,,,,,,,,
Lake Boondooma,Wondai Shire Council,,,,Australia,,-26.1032844,151.4516042,,,http://www.lakeboondooma.com.au/,,,,,,,,,
Trakka Terrace,,,,,Australia,,-26.5415155,152.3025816,,,,,,,,,,,,
Honeysuckle Campground,,,,,Australia,,-35.5834076,148.9751303,,,https://actparks.bookeasy.com/honeysuckle-campground#/accom/100195,,,,,,,,,
Unknown,,,,,Australia,,-34.0255043,150.1681727,,,,,,,,,,,,
Unknown,,,,,Australia,,-35.6774805,148.7551022,,,,,,,,,,,,
Unknown,,,,,Australia,,-35.6577209,148.7286674,,,,,,,,,,,,
Blue Waterholes campground,NSW National Parks and Wildlife Service,,,,Australia,,-35.6230348,148.6830643,,,https://www.nationalparks.nsw.gov.au/camping-and-accommodation/campgrounds/blue-waterholes-campground,yes,no,yes,,,,,yes,no
Magpie Flat campground,NSW National Parks and Wildlife Service,,,,Australia,,-35.6215076,148.6804408,,,,yes,no,,,,,,yes,no
Unknown,,,,,Australia,,-35.671131,148.6014412,,,,,no,,,,,,yes,no
Cooinbil Hut campground,NSW National Parks and Wildlife Service,,,,Australia,,-35.6314491,148.5965213,,,https://www.nationalparks.nsw.gov.au/camping-and-accommodation/campgrounds/cooinbil-hut-campground,yes,no,yes,,,,,yes,no
Unknown,,,,,Australia,,-35.8117355,148.5833558,,,,,,,,,,,,
Unknown,,,,,Australia,,-36.0117574,148.5393827,,,,,,,,,,,,
Unknown,,,,,Australia,,-36.0888523,148.4644368,,,,,,,,,,,,
Pioner Village Caravan Park,,,,,Australia,,-27.1774874,151.2431121,,,,,,,,,,,,
Westview Caravan Park,,Narromine Road,,,Australia,2830,-32.2309109,148.5757478,,,,,,,,,,,,
Cecil Plains Rural Retreat Caravan Park,Toowoomba Region,,,,Australia,,-27.5334116,151.196955,,,,,,,,yes,yes,,,
Cecil Plains Apex Park,,,,,Australia,,-27.5324513,151.2043512,,,,,,,,,,,,
Unknown,,,,,Australia,,-37.1296852,145.2026635,,,,,,,,,,,,
Unknown,,,,,Australia,,-35.0700257,147.385426,,,,,,,,,,,,
Mount Larcom Tourist Park,,Balfour Street,,,Australia,4695,-23.8154959,150.9814594,,,https://www.mtlarcomtouristpark.com/,,,,,,,,,
Unknown,,,,,Australia,,-41.0834195,146.8119693,,,,,,,,,,,,
Unknown,,,,,Australia,,-36.1461882,148.4521428,,,,,,,,,,,,
North Cedars Caravan Park,,,,,Australia,,-36.3305024,146.3472484,,,,,,,,,,,,
Dubbo Midstate Motor Park,,Bourke Street,,,Australia,2830,-32.2357546,148.6096701,,,https://dubbomidstate.com.au/,,,,,,,,,
Unknown,,,,,Australia,,-33.8211597,150.599446,,,,no,no,,,,,,,
Flat Rock Camping Area,,,,,Australia,,-37.1694277,145.1491026,,,,,,,,,,,,
Trawool Camping Area - Horeshoe Lagoon,,,,,Australia,,-37.1343059,145.2384022,,,,,,,,,,,,
Unknown,,,,,Australia,,-37.1220548,145.1938052,,,,,,,,,,,,
Unknown,,,,,Australia,,-37.1331078,145.1947634,,,,,,,,,,,,
Unknown,,,,,Australia,,-36.3314864,148.3962317,,,,,,,,,,,,
Unknown,,,,,Australia,,-36.2478939,150.1402552,,,,,,,,,,,,
Discovery Holiday Park,,,,,Australia,,-34.2518467,140.4507053,,,,,,,,,,,,
Milawa Caravan & Tourist Park,,,,,Australia,,-36.448412,146.430723,,,,,,,,,,,,
Kergunyah Caravan Park,,,,,Australia,,-36.3281946,147.0302081,,,,,,,,,,,,
Bossawa Campsite,,,,,Australia,,-35.28105,148.53738,,,,,no,,,,,,yes,no
Micalong Creek Campsite,,,,,Australia,,-35.24659,148.57481,,,http://weejasperreserves.com.au/visitor-info/reserves/,yes,yes,,,,,,yes,
Halls Gap Caravan Park,,,,,Australia,,-37.1412361,142.5185052,,,,,,,,,,,,
Coleraine Caravan Park,,,,,Australia,,-37.5972761,141.691524,,,,,,,,,,,,
Old Hut Site,"Department of National Parks, Sport and Racing",,,,Australia,,-28.2812388,152.6916212,,,http://www.nprsr.qld.gov.au/parks/mount-barney/camping.html#old_hut_site_bush_camp,,,,,,,,,
Forestry,Queensland Parks and Wildlife Service,,,,Australia,,-28.2960064,152.7150813,,,https://parks.des.qld.gov.au/parks/mount-barney/camping/forestry,no,,,,,,,,
Burbank,Queensland Parks and Wildlife Service,,,,Australia,,-28.2989939,152.7198341,,,https://parks.des.qld.gov.au/parks/mount-barney/camping/burbank,no,,,,,,,,
Emu Creek,,,,,Australia,,-28.2133107,152.4267325,,,,,,,,,,,,
Lake Dyer,,,,,Australia,,-27.6335487,152.377449,,,,,,,,,,,,
Round Tuit Campground,,,,,Australia,,-34.6338043,116.1431247,,,,yes,yes,,,yes,,,yes,yes
Reception - NRMA Echuca Holiday Park,,Crofton Street,,VIC,Australia,3564,-36.1163601,144.7433354,,,,,,,,,,,,
Taunton Farm,,,,,Australia,,-33.8110357,115.1227031,,,,yes,,,yes,yes,yes,,,
Forest Camp,,,,,Australia,,-38.0308907,141.1390745,,,,,,,,,,,,
Site 1,,,,,Australia,,-38.0463972,141.160793,,,,,,,,,,,,
Site 2,,,,,Australia,,-38.0464651,141.1609269,,,,,,,,,,,,
The Pines Camping Area,Forestry Corporation of NSW,,,,Australia,,-33.0627748,151.3360807,,,,yes,no,yes,,,,,yes,
Marion Big 4,,,,,Australia,,-35.0175634,138.5614029,,,,,,,,,,,,
The Captain Campsite,,,,,Australia,,-34.8765187,148.7172968,,,,,no,,,,,,yes,
Fitzroy River,,,,,Australia,,-38.2236067,141.7624787,,,,,,,,,,,,
Barwon Heads Caravan Park,,Ewing Blyth Drive,,,Australia,3227,-38.2836949,144.4938483,+61 3 5254 1115,bookings@barwoncoast.com.au,,,,,,,,,,
Tawonga Caravan Park,,,,,Australia,,-36.696064,147.1580782,,,,,,,,,,,,
Snowy Creek Campsite,,,,,Australia,,-36.5972362,147.4386726,,,,,,,,,,,,
St Arnaud Caravan Park,,,,,Australia,,-36.6117868,143.2586339,,,,,,,,,,,,
Coochin Creek Camping Area,Queensland Parks and Wildlife Service,Roys Road,,QLD,Australia,,-26.8814779,153.0459148,,,https://parks.des.qld.gov.au/parks/beerburrum-beerwah/camping/coochin-creek,,,,,,,,yes,yes
Amberley Caravan Park,,,,,Australia,,-27.666024,152.6929344,,,,,,,,,,,,
Willowbank Caravan Park,,,,,Australia,,-27.6689357,152.688692,,,,,,,,,,,,
Wallingat Camping Area,,,,,Australia,,-32.3276022,152.4029821,,,,,,,,,,,,
Buenba Flat South #2,,,,,Australia,,-36.7062868,147.9154304,,,,,,,,,,,,
Buenba Flat South #1,,,,,Australia,,-36.7024342,147.9195499,,,,,,,,,,,,
Buenba Flat South #3,,,,,Australia,,-36.7057634,147.9138343,,,,,,,,,,,,
Reflections Coffs Harbour - Holiday Park,,Pacific Highway,,NSW,Australia,2450,-30.2932587,153.1179429,+61 2 6652 1694,CoffsHarbour@reflectionsholidays.com.au,https://reflectionsholidays.com.au/parks/coffs-harbour/,,,,,yes,,,yes,yes
Sandy Hollow Tourist Park,,,,,Australia,,-32.3341842,150.5657625,,,,,,,,,,,,
Murraybank Caravan Park,,,,,Australia,,-35.8572272,144.988499,,,,,,,,,,,,
Tarragon Caravan Park,,,,,Australia,,-35.8569674,144.98131,,,,,,,,,,,,
AAOK Jandowae Accommodation Park,,High Street,,QLD,Australia,4410,-26.7869972,151.1130199,+61 7 4668 5071,bookings@jandopark.com.au,https://www.jandowaeaccommodationpark.com.au/,,,,,yes,,,yes,yes
Neurum Creek Bush Retreat,,Rasmussen Road,,,Australia,,-26.9962806,152.6842908,,,https://www.ncbr.com.au/,,,,,,,,,
Kosciuszko Tourist Park,,,,,Australia,,-36.3521785,148.5654062,,,,,,,,yes,,,yes,yes
Unknown,,,,,Australia,,-34.8389724,138.8163352,,,,,,,,,,,,
Ingenia Holidays Cape Paterson,,,,,Australia,,-38.6730348,145.6177306,+61 3 5674 4507,,https://www.ingeniaholidays.com.au/our-parks/victoria/gippsland/cape-paterson/,yes,yes,,yes,yes,yes,,yes,yes
Unknown,,,,,Australia,,-32.1612961,135.092661,,,,,,,,,,,,
Big Crystal Creek Camp Area,,,,,Australia,,-18.9800519,146.256208,,,,,,,,,,,,
Hall BNT campsite,,,,,Australia,,-35.1694747,149.075476,,,,,,,,,,,,
Unknown,The Forestry Corporation of NSW,,,,Australia,,-31.6091859,152.5806483,,,,yes,no,,,,,,yes,yes
Swans Creek Crossing - Kerewong SF,The Forestry Corporation of NSW,,,,Australia,,-31.6084601,152.5819793,,,https://www.forestrycorporation.com.au/visit/forests/kerewong,yes,no,,,,,,yes,yes
Gulgong Tourist Park - Gday,,,,,Australia,,-32.3659722,149.5244281,,,,,,,,,,,,
Peggs Beach Campground,,,,,Australia,,-40.8512221,145.352547,,,,yes,no,,,,,,yes,yes
Tassie Camp,,,,,Australia,,-37.1440309,145.2046845,,,,,,,,,,,,
Sundowner Caravan and Cabin Park,,,,,Australia,,-37.9347856,145.1602626,,,http://sundownercp.com/,,,,,,,,,
Pannawonica,,,,,Australia,,-21.6358944,116.324717,,,,,,,,,,,,
Unknown,,,,,Australia,,-30.8892213,153.0338757,,,,,,,,,,,,
Pretty Point Camp Ground,Nature Foundation SA,,,,Australia,,-32.1726903,135.1490222,,,,,,,,,,,,
Buddy's,,,,,Australia,,-26.0013618,113.1950431,,,,,,,,,,,,
Bramwell Roadhouse,,,,,Australia,,-12.0920677,142.5595967,,,,,,,,,,,,
Cormorant By The Lakes,,Pryce Road,,,Australia,,-37.9534253,147.673554,+61 3 5156 7463,,http://cormorantbythelakes.com/,,,,,,,,,
Breamlea Caravan Park,,,,,Australia,,-38.2930717,144.3987114,,,,,,,,,,,,
BIG4 Breeze Carnarvon Gorge,,O'Brien's Road,,,Australia,,-25.070831,148.2699258,+61 7 4984 4535,,https://www.big4.com.au/caravan-parks/qld/central-qld-highlands/breeze-holiday-parks-carnarvon-gorge,yes,,,yes,yes,yes,,yes,yes
Unknown,only operator's tents,,,,Australia,,-33.4233644,151.2228167,,,https://www.walkaboutpark.com.au/activities/evening-overnight/wild-sleep-out-tent-overnight,yes,yes,,,,,,yes,no
Unknown,24 hour overnight camping allowed,,,,Australia,,-24.0608948,131.4082295,,,,,,,,,,,,
Unknown,,,,,Australia,,-29.432771,153.3409496,,,,,,,,,,,,
Yamba Waters Caravan Park,,,,,Australia,,-29.4408522,153.3420526,,,https://www.yambawaters.com.au,,,,,,,,,
Big Lagoon,,,,,Australia,,-25.7764441,113.4771803,,,https://exploreparks.dbca.wa.gov.au/site/big-lagoon-campground,,,,no,,,,yes,
Milligan Island Camping Node,Shire of Coorow,,,,Australia,,-30.0323892,114.9613298,,,https://www.coorow.wa.gov.au/Profiles/coorow/Assets/ClientData/Milligan_Island_updated_2021.pdf,yes,no,,,no,,,,
Pumphreys Bridge,Shire of Wandering,,,,Australia,,-32.6623965,116.9050012,,,,yes,no,,,,,,,
Nalara Rock,,,,,Australia,,-31.5957246,134.4459422,,,,,,,,,,,,
Mt Finke campground,,,,,Australia,,-30.9205428,134.0277451,,,https://www.parks.sa.gov.au/parks/yellabinna-regional-reserve/booking/85964,,,,,,,,yes,yes
Sunday Creek campsite,,,,,Australia,,-37.1366573,145.0581061,,,,,,,,,,,,
Group Camping Area,,,,,Australia,,-29.8644609,152.448452,,,,,,,,,,,,
Dalmorton Camping Area,,,,,Australia,,-29.8644734,152.4473504,,,,,,,,,,,,
Korumburra Tourist Park,,Bourke Street,,VIC,Australia,3950,-38.4266822,145.8299436,,,korumburratouristpark.com.au,,,,,yes,,,,
Lesser Keyhole,,,,,Australia,,-34.8055048,150.003453,,,,,,,,,,,,
Greater Keyhole,,,,,Australia,,-34.8047144,150.0021914,,,,,,,,,,,,
The Paddock RV Park,,,,,Australia,,-17.6557516,145.9558784,,,,,,,,,,,,
Spalding Cove,,,,,Australia,,-34.784146,135.9617717,,,,,,,,,,,,
Woodcutters Beach Campsite,,,,,Australia,,-34.7874406,135.9147946,,,,,,,,,,,,
BIG 4 Salwater @ Yamba,,,,,Australia,,-29.3943564,153.3125907,,,,,,,,,,,,
Rangelands,,,,,Australia,,-34.570139,139.008192,,,,,,,,,,,,
Fisherman Point Campground,,,,,Australia,,-34.7573995,135.985103,,,,,,,,,,,,
September Beach Campground,,,,,Australia,,-34.7331073,135.9965069,,,,yes,no,,no,no,,,yes,yes
Unknown,Kings Canyon Resort,,,,Australia,,-24.2575781,131.4966063,,,,,,,,,,,,
Carcase Rock Campsite,,,,,Australia,,-34.768794,136.0064165,,,,,,,,,,,,
MacLaren Campsite,,,,,Australia,,-34.7888316,136.0023666,,,,,,,,,,,,
New Country Swamp Camp Site,,,,,Australia,,-31.3294625,151.8690744,,,,,,,,,,,,
Townsville Eco Resort,,Muntalunga Drive,,,Australia,,-19.3737413,146.9031887,,,https://townsvilleecoresort.com.au/,,,,,yes,yes,,,
Gunyah Camping Area,,,,,Australia,,-32.1478212,151.4803337,,,,,no,,,,,,yes,yes
White Rock Camping Area,,,,,Australia,,-32.1251008,151.4680452,,,https://www.forestrycorporation.com.au/visit/forests/chichester,yes,no,,,,,,yes,no
Old Camp Camping Area,,,,,Australia,,-32.1553628,151.4886479,,,https://www.forestrycorporation.com.au/visit/forests/chichester,yes,no,,,,,,yes,yes
Dobbie Rim Camping Area,,,,,Australia,,-32.1554196,151.4877668,,,https://www.forestrycorporation.com.au/visit/forests/chichester,,no,,,,,,yes,yes
Pademelon Park Camping Area,,,,,Australia,,-32.1534428,151.484528,,,https://www.forestrycorporation.com.au/visit/forests/chichester,yes,no,,,,,,yes,yes
Leigh Creek Caravan Park,,Acacia Road,,,Australia,,-30.5883718,138.4083276,,,,,,,,,,,,
Unknown,,,,,Australia,,-37.1273938,145.1827592,,,,,,,,,,,,
Horse Rock Campsite,,,,,Australia,,-34.8123985,135.8548763,,,,,,,,,,,,
Coobowie Caravan Park,,,,,Australia,,-35.0472069,137.7273397,,,,,,,,,,,,
Coobowie Caravan Park,,,,,Australia,,-35.0460831,137.7261762,,,,,,,,,,,,
Leatherbarrel Creek Camping & Picnic Area,,,,,Australia,,-36.5253873,148.1935783,,,,,,,,,,,,
Memory Cove Campsite,SA Parks,,,,Australia,,-34.962169,135.9905704,,,,,,,,,,,,
Taylors Landing Campground,,,,,Australia,,-34.8543974,135.9592318,,,,,,,,,,,,
Teds Beach Campground,Parks and Wildlife,,,,Australia,,-42.7865822,146.0609379,,,,,,,,,,,yes,yes
Unknown,,,,,Australia,,-33.0956347,149.7325267,,,,,,,,,,,,
Rainforest Campsite,,,,,Australia,,-20.3507327,148.7546759,,,,,,,,,,,,
Bloodwood Camp,,,,,Australia,,-20.3057406,148.7341895,,,,,,,,,,,,
Unknown,,,,,Australia,,-20.3402177,148.7494368,,,,,,,,,,,,
Jolly Swagman Accommodation Park,,Kitchener Street,,QLD,Australia,4350,-27.5693095,151.962906,+61 7 4632 8735,,,,,,,yes,customers,,yes,
Carters Mill Campground,,,,,Australia,,-37.1032889,146.3671844,,,,yes,no,,no,no,no,,yes,yes
Everton Gardens Caravan Park,,,,,Australia,,-36.4321494,146.5421185,,,,,,,,,,,,
Karingal,Girl Guides NSW,,,,Australia,,-34.0563141,151.0068645,,,https://www.girlguides-nswact.org.au/Documents/Properties/Region_Props/SP1510_Koringal_brochure_final.pdf,yes,yes,,,yes,,,24,no
Lake Talbot Tourist Park,,Gordon Street,,NSW,Australia,2700,-34.7543268,146.5656963,,info@laketalbot.com.au,http://www.laketalbot.com.au,,,,,yes,yes,,yes,
Mountain View Lake Eco Park,,,,,Australia,,-19.5070273,147.0326755,,,,,,,,,,,,
Cresco Camp,Scouts Victoria,,,VIC,Australia,3113,-37.7324177,145.2022736,,,,,,,,,,,,
Unknown,,,,,Australia,,-31.3788036,118.6785283,,,,,,,,,,,,
Marapoi Station Stay,,,,,Australia,,-29.4027591,121.3794248,,,,,,,,,,,,
Happy Campers Office,,,,,Australia,,-26.908584,152.7620435,,,,,,,,,,,,
The Lakes District Happy Campers Office,,,,,Australia,,-26.9091331,152.7626392,,,,,,,,,,,,
The Prairies (Volunteers) Happy Campers Office,,,,,Australia,,-26.907813,152.7621385,,,,,,,,,,,,
Stallholders Camping,,,,,Australia,,-26.9071712,152.7639345,,,,,,,,,,,,
Overnight Camping,,,,,Australia,,-26.907007,152.7630831,,,,,,,,,,,,
Cloundland Happy Campers Office,,,,,Australia,,-26.9122688,152.7545921,,,,,,,,,,,,
Volunteer Camping Cloudland,,,,,Australia,,-26.9129717,152.7549937,,,,,,,,,,,,
Grand Canyon Happy Campers Office,,,,,Australia,,-26.909609,152.7528402,,,,,,,,,,,,
Season Camping Happy Campers Office,,,,,Australia,,-26.9149296,152.7570199,,,,,,,,,,,,
OP (Organisers and Performers) Happy Campers Office,,,,,Australia,,-26.908122,152.757492,,,,,,,,,,,,
OP Camping (Organisers and Performers),,,,,Australia,,-26.9084861,152.7565911,,,,,,,,,,,,
Area No. 3,,,,,Australia,,-36.3381628,146.8068036,,,,,,,,,,,yes,yes
Area No. 4,,,,,Australia,,-36.338507,146.80652,,,,,,,,,,,yes,yes
Narcissus Hut Campsite,,,,,Australia,,-42.0127483,146.1020477,,,https://www.parks.tas.gov.au/file.aspx?id=36845,yes,no,,,,,,yes,no
Tenterfield Lodge & Caravan Park,,,,,Australia,,-29.0532551,152.0070975,,,https://www.tenterfieldlodgecaravanpark.com.au/,,,,,yes,yes,,,
Laura Community Caravan Park,,,,,Australia,,-33.1810775,138.3011614,,,,,,,,yes,yes,,,
Lake Liddell Recreation Area,,,,,Australia,,-32.353347,150.99635,,,,,,,,,,,,
Area No. 6,,,,,Australia,,-36.3468405,146.8013777,,,,,,,,,,,yes,yes
Area No. 2,,,,,Australia,,-36.3359071,146.8098709,,,,,,,,,,,yes,yes
Area No. 1,,,,,Australia,,-36.3352222,146.8099514,,,,,,,,,,,yes,yes
Gympie Recovery Accommodation Park,,Jane Street,,,Australia,,-26.1866121,152.6524719,,,https://www.housing.qld.gov.au/about/initiatives/gympie-recovery-accommodation-park,,,,,yes,yes,,,no
Riverside Holiday Park,,,,,Australia,,-32.0934422,152.4463137,,,,,,,,,,,,
Riverside Caravan Park,,,,,Australia,,-26.6226981,153.0423609,,,,,,,,,,,,
Reflections Lake Burrendong - Holiday Park,Reflections Holidays,Fashions Mount Road,,,Australia,,-32.686592,149.094765,+61 2 6846 7435,lakeburrendong@reflectionsholidays.com.au,https://reflectionsholidays.com.au/parks/lake-burrendong/,,,,,,,,yes,yes
Sanctuary by Sirromet,Sirromet Winery,,,,Australia,,-27.5940174,153.2353519,,,https://sanctuarybysirromet.com/,,,,,,,,no,no
Tuena Camping and Recreation Area,,,,,Australia,,-34.0149445,149.3274591,,,,,,,,,,,,
Unknown,,,,,Australia,,-35.0319511,150.4464769,,,,,,,,,,,,
Unknown,,,,,Australia,,-35.0329086,150.4474023,,,,,,,,,,,,
Buronga Riverside Tourist Park,,Caravan Park Road,,NSW,Australia,2739,-34.1806024,142.1681561,+61 3 5023 3040,info@burongacaravanpark.com.au,http://www.burongacaravanpark.com.au/,,,,,yes,yes,,,
Riverbend Caravan Park,,,,,Australia,,-34.1785759,140.7752643,,,,,,,,,,,,
Big 4: Renmark Holiday Park,,,,,Australia,,-34.1774804,140.7664664,,,,,,,,,,,,
Stratford On The River,,,,,Australia,,-37.9700517,147.0774935,,,,,,,,,,,,
Mystery Bay Campground,,,,,Australia,,-36.2983779,150.1323621,,,https://mysterybaycampground.com.au/,,,,,,,,,
Curlwaa Caravan Park,,,,,Australia,,-34.1132597,141.9899922,+61 3 5027 6210,,https://www.curlwaacaravanpark.com.au/,yes,yes,,,,,,yes,yes
Pioneer Park Camping Ground Riana,,,,,Australia,,-41.2156489,145.9985434,,,,,,,,,,,,
New Pelion Hut Public Campsite,,,,,Australia,,-41.8305347,146.0464726,,,https://www.parks.tas.gov.au/file.aspx?id=36845,yes,no,,,,,,yes,no
Scott-Kilvert Hut Campsite,,,,,Australia,,-41.6922695,145.9649496,,,,yes,no,,,,,,yes,no
Roaring Meg,,,,,Australia,,-39.1158595,146.3869777,,,,,,,,,,,,
Unknown,,,,,Australia,,-39.1152966,146.3876054,,,,,,,,,,,,
Gordon Foreshore Reserve,,,,,Australia,,-43.261338,147.2419375,,,,yes,no,,boil,no,yes,,yes,yes
Somerset Park Campground,,Esk-Kilcoy Road,,,Australia,,-27.1228722,152.5516149,+61 428 180 450,,https://www.campingsomerset.com.au/accommodation/camping,,,,,,,,,
The Basin Campground,Booking required,,,,Australia,,-33.6028838,151.2935159,,,https://www.nationalparks.nsw.gov.au/camping-and-accommodation/campgrounds/the-basin-campground,yes,yes,,,,,,yes,no
Camp Kedron,,Queen Elizabeth Drive,,,Australia,,-34.2064984,140.4659023,+61 8 8588 7059,,https://www.campkedronsa.com.au/,,,,,,,,,
Echo Holiday Park,,Peake Terrace,,SA,Australia,5330,-34.1746649,139.9820896,+61 437 861 889,,https://echoholidayparks.com.au/waikerie,,,,,yes,yes,,,
Euston Riverfront Caravan Park & Cafe,,,,,Australia,,-34.5777065,142.7456643,,,,,,,,,,,,
Kerang Caravan & Tourist Park,,,,,Australia,,-35.7373225,143.9138245,,,https://www.kerangcaravanandtouristpark.com.au/,yes,yes,yes,,,,,yes,yes
Winton Motor Raceway Camping Ground,,,,,Australia,,-36.5195372,146.0918184,,,https://wintonraceway.com.au/camping/,,,,,,,,,
Dixon's Kingdom Hut Camping Area (Decommisioned),,,,,Australia,,-41.8281535,146.3097509,,,https://www.parks.tas.gov.au/?base=27104,yes,no,,,no,,,yes,no
Myrtle Park Recreation Ground,,,,,Australia,,-41.3095939,147.3656561,,,https://www.launceston.tas.gov.au/Parks-and-Gardens/Myrtle-Park-Recreation-Ground,yes,yes,,,,,,yes,yes
Unknown,Windermere Group Camping Platforms,,,,Australia,,-41.7711271,145.9556988,,,https://www.parks.tas.gov.au/file.aspx?id=36845,yes,no,,,,,,yes,no
Waterfall Valley Public Camping Platform,,,,,Australia,,-41.714446,145.9467934,,,https://www.parks.tas.gov.au/file.aspx?id=36845,yes,no,,,,,,yes,no
Waterfall Valley Group Camping Platform,,,,,Australia,,-41.7142224,145.9452969,,,https://www.parks.tas.gov.au/file.aspx?id=36845,yes,no,,,,,,yes,no
Unknown,,,,,Australia,,-41.7145958,145.9451901,,,https://www.parks.tas.gov.au/file.aspx?id=36845,yes,no,,,,,,yes,no
Melrose Caravan Park,,,,,Australia,,-32.8243767,138.1868465,,,https://www.melrosecaravanpark.com.au/c,yes,yes,,,,,,yes,yes
Camp Kurrajong,,,,,Australia,,-35.0878884,147.458861,,,,,,,,,,,,
Coachwood Camping Area,,,,,Australia,,-32.2162822,151.7608694,,,https://www.forestrycorporation.com.au/visit/forests/chichester-telegherry,yes,no,,,,,,yes,yes
Frying Pan Camping Area,,,,,Australia,,-32.2183723,151.7613454,,,https://www.forestrycorporation.com.au/visit/forests/chichester-telegherry,yes,no,,,,,,yes,yes
Currawong Camping Area,,,,,Australia,,-32.219855,151.7454373,,,https://www.forestrycorporation.com.au/visit/forests/chichester-telegherry,yes,no,,,,,,yes,no
Telegherry Camping Area,,,,,Australia,,-32.2231273,151.744194,,,https://www.forestrycorporation.com.au/visit/forests/chichester-telegherry,yes,no,,,,,,yes,yes
Ferndale Camping Area,,,,,Australia,,-32.241844,151.6968531,,,https://ferndalepark.com.au/,yes,yes,,,,,,yes,yes
Riverwood Downs,Riverwood Downs Of Barrington Tops,Upper Monkerai Road,,,Australia,2415,-32.2817196,151.8550163,+61 2 4994 7112,,https://www.riverwooddowns.com.au/,yes,no,,,,,,yes,yes
Dunkeld Caravan Park,,Parker Street,,VIC,Australia,3294,-37.649062,142.3455254,+61 409 942 578,,https://dunkeldcaravanpark.com,,,,,yes,yes,,yes,
Coopernook Forest HQ,,,,,Australia,,-31.7885623,152.6091766,,,https://www.forestrycorporation.com.au/visit/forests/coopernook,yes,no,,,,,,yes,yes
Tenthill Caravan Park & Store,,,,,Australia,,-27.6345494,152.2126499,,,,,,,yes,yes,,,,
The Junction Pub and Tourist Park,,,,,Australia,,-25.0534987,115.2062704,,,https://www.junctiontouristpark.com/,yes,yes,,,yes,,,yes,yes
Colo Meroo,,,,,Australia,,-33.3840975,150.692933,,,https://www.nationalparks.nsw.gov.au/camping-and-accommodation/campgrounds/colo-meroo-campground,yes,no,yes,,,,,yes,no
BIG4 Mildura Getaway - Holiday Park Mildura,,,,,Australia,,-34.2082318,142.1363217,,,,,,,,,,,,
Paringa Caravan Park,,,,,Australia,,-34.1817708,140.7840989,,,,,,,,yes,,,,
Threeways Roadhouse,,,,,Australia,,-19.4365159,134.2087197,,,,,,,,,,,,
Unknown,,,,,Australia,,-29.0589879,167.9627648,,,,,,,,,,,,
Gunning Showground Camp area,Upper Lachlan Shire Council,,,,Australia,,-34.7855386,149.2649316,,,,yes,yes,,,no,,,yes,yes
Barbour Park Free Caravan Park,Upper Lachlan Shire Council,,,,Australia,,-34.7792162,149.2684028,,,,yes,yes,,,,yes,,,yes
Hibiscus Gardens Caravan Park,,River Street,,NSW,Australia,2478,-28.8630951,153.5340001,+61 2 6686 2394,,,,,,,yes,,,,
Shadforth Reserve Rest Area,,,,,Australia,,-33.3752695,149.1881565,,,,,,,,,,,,
Saddleworth Caravan Park,Please contact park manager at location. This is run by the cricket club.,,,,Australia,,-34.0849737,138.7866772,,,,,,,,yes,yes,,,
Riverton Caravan Park,,,,,Australia,,-34.1547531,138.748994,,,,,,,,,,,,
Queen Victoria Jubilee Park,,,,,Australia,,-34.6733776,138.9042617,,,,,,,,,,,,
Nhill Caravan Park,,Victoria street,,VIC,Australia,3418,-36.3402404,141.6454861,+61 3 5391 1683,nhillcp@gmail.com,https://nhillcaravanpark.com/,,,,,yes,yes,,yes,yes
Gnowangerup Caravan Park,Book/Pay at IGA,,,,Australia,,-33.9420805,118.009857,,,,,,,,yes,yes,,,
Stevensons Falls Campground,,,,,Australia,,-38.5642948,143.6555446,,,,,,,,no,,,,
Pier Caravan Park,,,,,Australia,,-25.2860597,152.9007764,,,,,,,,yes,yes,,,
Unknown,,,,,Australia,,-36.3180128,146.5897847,,,,,,,,,,,,
Unknown,,,,,Australia,,-36.3149439,146.5938312,,,,,,,,,,,,
Unknown,,,,,Australia,,-31.2744262,115.4417188,,,,,,,,,,,,
Ace Caravan Park,,Esplanade,,,Australia,,-25.9069438,153.008943,+61 7 5486 4152,,,,,,,,,,,
Kingfisher Caravan Park,,,,,Australia,,-25.9089192,153.0072953,+61 7 5486 4198,,kingfishercaravanpark.com.au,,,,,,,,,
Burralow Creek Campground,,,,,Australia,,-33.5557682,150.6034514,,,https://www.nationalparks.nsw.gov.au/camping-and-accommodation/campgrounds/burralow-creek-campground-picnic-area,yes,no,yes,,,,,yes,no
Sunny Corner Recreation Reserve,,,,,Australia,,-33.3876982,149.8932013,,,,,no,,,,,,yes,
Tin Can Bay Tourism Park,,,,,Australia,,-25.9240458,153.0062361,+61 7 5486 4411,,https://tincanbaytouristpark.com.au/,,,,,,,,,
Unknown,,,,,Australia,,-36.3122614,146.5978191,,,,,,,,,,,,
Unknown,,,,,Australia,,-36.3113679,146.6005391,,,,,,,,,,,,
Unknown,,,,,Australia,,-33.4136458,149.3236849,,,,,,,,,,,,
Unknown,,,,,Australia,,-35.9587543,144.9582536,,,,,,,,,,,,
Boodjamulla (Lawn Hill) National Park -,,,,,Australia,,-18.7014219,138.4864242,,,,,,,,,,,,
Nimmitabel Caravan Park,Snowy Monaro Regional Council,,,,Australia,,-36.5084871,149.2845708,+61 436 806 817,,https://www.snowymonaro.nsw.gov.au/947/Nimmitabel-Caravan-Park,yes,yes,,,,,,yes,yes
Bombala Caravan Park,,,,,Australia,,-36.9084497,149.2396131,,,,yes,yes,,,yes,,,yes,yes
Reflections Pambula - Holiday Park,Reflections Holidays,Cnr Toallo Street & Munje Street,,,Australia,,-36.9309108,149.8814401,+61 2 6495 6708,Pambula@reflectionsholidays.com.au,https://reflectionsholidays.com.au/parks/pambula/,yes,yes,,,,,,yes,yes
Trangie Caravan Park,,,,,Australia,,-32.0341101,147.976951,,,https://www.trangiecaravanpark.com.au/,yes,yes,,,,,,yes,yes
Merredin Tourist Park,,Oats Street,,,Australia,,-31.4851167,118.292424,+61 8 9041 1535,,https://www.merredintouristpark.com.au/,yes,,yes,,yes,customers,,yes,yes
Warialda Caravan Park,Gwydir Shire Council,Holden Street,,NSW,Australia,2402,-29.5419679,150.5696941,+61 4 2729 1008,,,yes,yes,,,yes,,,yes,yes
Molloy Caravan Park,,,,,Australia,,-34.2590461,115.2090501,,,,,,,,,,,,
Fossickers Tourist Park,Gday Parks,,,,Australia,,-31.4584985,151.1278707,,,https://www.fossickersatnundle.com.au/,yes,yes,,,,,,yes,yes
Village Campground,,,,,Australia,,-33.0340046,149.4132689,,,https://www.nationalparks.nsw.gov.au/camping-and-accommodation/campgrounds/village-campground,yes,yes,yes,,,,,yes,yes
Ocean View Caravan Park,,,,,Australia,,-21.6346091,115.1118426,,,,,,,,,,,,
Paddock Campground,,,,,Australia,,-33.4422201,149.5575599,,,,,,,,,,,,
Motorhome Park Campground,,,,,Australia,,-33.4476296,149.5608496,,,,,,,,,,,,
Chase Campground,,,,,Australia,,-33.4444661,149.5650146,,,,,,,,,,,,
Cowwarr Weir Caravan Rest Area,,,,,Australia,,-37.996818,146.6597778,,,,,,,,,,,,
Big 4 River Holiday Park and Ski Lodge,,Ski Lodge Road,,NSW,Australia,2460,-29.6102999,152.9257551,+61 2 6644 9324,,https://www.bigriverholidaypark.com.au,,,,,yes,,,,
Wine Country Tourist Park,,O'Connors Road,,NSW,Australia,,-32.810329,151.3490711,,reservations@winecountrytouristpark.com.au,https://winecountrytouristpark.com.au/,yes,yes,,yes,yes,yes,,yes,yes
Dunns Swamp Campground,,,,,Australia,,-32.8343033,150.2061135,,,https://www.nationalparks.nsw.gov.au/camping-and-accommodation/campgrounds/dunns-swamp-ganguddy-campground,yes,no,,,,,,yes,yes
Aragunnu Camping Area,,,,,Australia,,-36.5845348,150.0477263,,,,,,,,,,,,
Rangeview Caravan & Cabin Park,,,,,Australia,,-33.1689128,138.0687975,,,,,,,,,,,,
Turners Beach Caravan Park,,Esplanade,,TAS,Australia,7315,-41.1581348,146.242862,,,,,,,,,,,,
Woolomin Reserve,,,,,Australia,,-31.3039574,151.1472852,,,,,,,,,,,,
BIG4 Cairns Crystal Cascades Holiday Park,,,,,Australia,,-16.9268817,145.6963223,,,https://crystalcascades.com.au,,,,,,,,,yes
Eskdale Caravan Park,,,,,Australia,,-36.4653079,147.2483015,,,,,,,,,,,,
Flea Creek Campground,,,,,Australia,,-35.3386529,148.7541703,,,https://www.nationalparks.nsw.gov.au/camping-and-accommodation/campgrounds/flea-creek-campground,yes,no,yes,,,,,yes,no
Agate Creek Campground,Old Robinhood Station,,,,Australia,,-19.0026736,143.5590705,,,,,,,,no,,,,
Smythesdale Gardens,,,,,Australia,,-37.6391357,143.685237,,,,,,,,,,,,
Cowah Falls,,,,,Australia,,-26.5470426,152.3087774,,,,,,,,,,,,
Forsayth Caravan Park,,,,,Australia,,-18.58793,143.602049,,,,,,,,,,,,
Frying Pan Flat,,,,,Australia,,-33.8096503,150.2046758,,,,,,,,,,,yes,no
Leichhardt Lagoon Camping Park,,,,,Australia,,-17.8511323,141.1283019,,,,yes,yes,,,no,,,yes,yes
"Islands Caravan Park, Streaky Bay",,,,,Australia,,-32.74845,134.2441214,,,,,,,,yes,,,,
Hay Caravan Park,,Sturt Highway,,,Australia,2711,-34.5189555,144.856925,+61 2 6993 1415,,,yes,yes,,,yes,yes,,yes,yes
Mount Barker Caravan & Tourist Park,,,,,Australia,,-35.0617357,138.8611259,,,,,,,,,,,,
Hobart Discovery Holiday Park,,,,,Australia,,-42.814918,147.3376983,,,,,,,,,,,,
Unknown,,,,,Australia,,-27.7668817,152.0854529,,,,,,,,,,,,
Nowendoc Rest Area,,,,,Australia,,-31.5138293,151.7159927,,,,yes,no,,,,,,,
Djab Wurrung Embassy,Djab Wurrung Elders,,,,Australia,,-37.3089293,143.0122968,,,,,,,,,,,,
No 1 Camping area,,,,,Australia,,-37.3213513,145.1719501,,,,,,,,,,,,
Lynchs Creek Reserve,gold coin donation. pleasant sheltered area next to creek on raised level ground. Quaint old school house is open for inspection.,,,,Australia,,-28.4454476,152.9995612,,,,yes,no,,,,,,yes,yes
Forbes River Meadows Caravan Park,,,,,Australia,,-33.3971173,147.9927599,,,,,,,,yes,,,yes,
Yea Riverside Caravan Park,,,,,Australia,,-37.2129405,145.4330532,,,,,,,,,,,yes,
Tooraweenah Tourist Park,,,,,Australia,,-31.4388015,148.911139,+61 2 6848 1133,,,,,,,yes,,,,
Cooroy No Worries RV,,Holts Road,,,Australia,,-26.4414334,152.918767,+61 411 786 247,cooroynoworries@gmail.com,,,,,,,,,,
Unknown,,,,,Australia,,-26.0019782,113.1970798,,,,,,,,,,,,
Unknown,,,,,Australia,,-26.0019541,113.1968578,,,,,,,,,,,,
Unknown,,,,,Australia,,-26.0020041,113.1965668,,,,,,,,,,,,
Unknown,,,,,Australia,,-26.001842,113.1963173,,,,,,,,,,,,
Unknown,,,,,Australia,,-26.001778,113.1960666,,,,,,,,,,,,
Unknown,,,,,Australia,,-26.0017256,113.1958513,,,,,,,,,,,,
Unknown,,,,,Australia,,-26.0016443,113.1956206,,,,,,,,,,,,
Unknown,,,,,Australia,,-26.0015503,113.1954228,,,,,,,,,,,,
Unknown,,,,,Australia,,-26.0014876,113.1952706,,,,,,,,,,,,
Unknown,,,,,Australia,,-26.0014327,113.1950829,,,,,,,,,,,,
Unknown,,,,,Australia,,-26.0012869,113.1949326,,,,,,,,,,,,
Unknown,,,,,Australia,,-26.0012158,113.1946068,,,,,,,,,,,,
Unknown,,,,,Australia,,-26.0011713,113.194367,,,,,,,,,,,,
Jed's,,,,,Australia,,-26.002396,113.1997904,,,,,,,,,,,,
Unknown,,,,,Australia,,-26.0024213,113.1999044,,,,,,,,,,,,
Unknown,,,,,Australia,,-26.0023858,113.1996837,,,,,,,,,,,,
Unknown,,,,,Australia,,-26.0024226,113.2000351,,,,,,,,,,,,
Koroit-Tower Hill Caravan Park,,,,,Australia,,-38.2970066,142.3684821,,,,,,,,,,,,
Timbertown Camp Ground,,,,,Australia,,-31.4707813,152.7123627,,,,,,,,,,,yes,yes
Breeze Holiday Parks - Grampians,,,,,Australia,,-37.1299849,142.5400054,,,https://breezeholidayparks.com.au/parks/grampians/,,,,,,,,,
The Gums,,,,,Australia,,-26.5427011,152.2984241,,,,,,,,,,,,
Unknown,,,,,Australia,,-33.1872122,150.190176,,,,no,no,,,,,,yes,no
Tuross Beach Holiday Park,,,,,Australia,,-36.0643118,150.1336625,,,,,,,,,,,,
Tuross Beach Holiday Park,,,,,Australia,,-36.0643245,150.1337962,,,,,,,,,,,,
Rocky Creek Campground,ForestrySA,,,,Australia,,-35.1462282,138.7376385,,,,,,,,,,,,
Geoff Fisher Bridge Rest Area,,,,,Australia,,-27.432512,152.6400441,,,,,,,,,,,,yes
Big 4 Karuah Jetty,,,,,Australia,,-32.6633858,151.9640538,,,,,,,,,,,,
Stone Road Camp Site,,,,,Australia,,-35.3188408,138.6852002,,,,,,,,,,,,
Mount Compass Caravan Park,,,,,Australia,,-35.3618109,138.6138908,,,https://www.mountcompasscaravanpark.com.au/,,,,,,,,,
Woodcutters Cottage,,,,,Australia,,-35.2296173,138.6853464,,,,,,,,,,,,
Toorooroo,,,,,Australia,,-34.9170408,150.3911963,,,,,,,,,,,,
Durras Beach North Tourist Park,,Durras Road,,,Australia,,-35.6375054,150.3006004,,,,yes,yes,,,,,,yes,no
Mary Pool (Mary River),,,,,Australia,,-18.7264608,126.8721812,,,,,,,,,,,,
Spicers Park Caravan Park,,,,,Australia,,-33.1317519,148.1813871,,,,,,,,,,,,
Unknown,,,,,Australia,,-36.8942693,147.2493444,,,,,,,,,,,,
Unknown,,,,,Australia,,-36.7564193,147.3276709,,,,,,,,,,,,
a'wangrilea caravan park,,Betka Road,,VIC,Australia,3892,-37.5609141,149.755503,,,,,,,,yes,,,,
Mallacoota Beachcomber Caravan Park,,,,,Australia,,-37.559424,149.7550911,,,,,,,,,,,,
Greenpatch Camping Area,,,,,Australia,,-35.1381815,150.7217505,,,,,,,,,,,,
Unknown,,,,,Australia,,-35.1386775,150.724192,,,,,,,,,,,,
Big4 Sandstone Point Holiday Resort,,,,,Australia,,-27.0782456,153.1407835,,,,,,,,,,,,
Freycinet National Park Campground (Sand dune sites 19-45),Tasmania Parks & Wildlife Service,,,,Australia,,-42.1292479,148.3005437,,,,yes,yes,,,no,,,yes,no
Freycinet National Park Campground (Caravan sites 1-18),Tasmania Parks & Wildlife Service,,,,Australia,,-42.1244585,148.2965686,,,,yes,yes,,,yes,,,no,yes
Freycinet National Park Campground (Honeymoon Bay sites 46-52),Tasmania Parks & Wildlife Service,,,,Australia,,-42.1383638,148.298708,,,,yes,yes,,,no,,,yes,no
Rosevale Farm Resort,,Wisemans Ferry Road,,NSW,Australia,2775,-33.3974423,151.0009428,,,,,,,,,,,,
Wallaga Lake Holiday Park,Big 4,,,,Australia,,-36.3815444,150.0695193,,,https://www.wallagalakeholidaypark.com.au/,,,,,,,,,
Woolshed Flat Campground,NSW National Parks and Wildlife Service,,,,Australia,,-33.2085688,149.9601856,,,https://www.nationalparks.nsw.gov.au/camping-and-accommodation/campgrounds/woolshed-flat-campground,yes,no,,,,,,,
Vera Hut Campsite,,,,,Australia,,-42.2709713,145.8855542,,,,,no,,,,,,yes,no
Max Cameron Campground,,,,,Australia,,-33.4371877,149.5540215,,,,,,,,,,,,
One Less Car Parking (bus travellers and cyclists),,,,,Australia,,-26.9159528,152.7603208,,,,,,,,,,,,
Pitch Luxury Glamping Village,,,,,Australia,,-26.9162469,152.7617006,,,,,,,,,,,,
Drouin Caravan Park,,,,,Australia,,-38.119033,145.840931,,,,,,,,,,,,
Camp Coolamatong Farm Camp,Scripture Union Victoria,Cranswick Road,,,Australia,,-37.9467726,147.6628367,+61 3 5156 6511,coolamatong@suvic.org.au,https://www.campcoolamatong.com/,yes,yes,,,,,,,
Wombat Creek Camping Area,NSW National Parks and Wildlife Service,,,,Australia,,-32.0537314,151.4691392,,,,,,,,,,,,
Youngville Camping Area,NSW National Parks and Wildlife Service,,,,Australia,,-32.1994313,151.3097902,,,,,,,,,,,yes,
Knobbies Caravan and Camping Area,,,,,Australia,,-32.7318001,137.1500674,,,,yes,yes,,,no,yes,,yes,yes
Lake Bolac Caravan Park,,Frontage Road,,VIC,Australia,,-37.720039,142.8410452,,,https://lakebolac.holiday/,,,,,,,,,
Manning Gorge Campground,,,,,Australia,,-16.657603,125.9285325,,,,,,,,,,,,
Donnybrook Caravan Park,,,,,Australia,,-27.0002577,153.0706695,,,,,,,,,,,,
Stony Creek Bush Camp Caravan Park,,,,,Australia,,-32.6478859,138.1351808,,,,yes,,,,,,,,
Halifax Holiday Park,,,,,Australia,,-32.7119041,152.160312,,,,,,,,,,,,
Carrington Falls Campground,,,,,Australia,,-34.6193215,150.6562793,,,,,,,,,,,,
Silverland Caravan Park,,,,,Australia,,-31.9410254,141.4814765,,,,,,,,,,,,
Unknown,,,,,Australia,,-31.0944673,138.6768112,,,,,,,,,,,,
Brachina East Camp Ground,,,,,Australia,,-31.3337373,138.5793942,,,,,,,,,,,,
Trezona Camp Ground,,,,,Australia,,-31.3307757,138.627223,,,,,,,,,,,,
Aroona Campground,,,,,Australia,,-31.2787483,138.5809549,,,,,,,,,,,,
Koolaman Camp Ground,,,,,Australia,,-31.2909314,138.5872478,,,,,,,,,,,,
Weetootla Gorge Camp Ground,,,,,Australia,,-30.5191077,139.2952955,,,,,,,,,,,,
Crossroads Medieval Village,Crossroads Medieval Village Cooperative,,,,Australia,,-34.8251032,149.0350497,,,,,,,,,,,,
Unknown,,,,,Australia,,-30.3146415,139.3321739,,,,,,,,,,,,
Unknown,,,,,Australia,,-30.3167178,139.3299755,,,,,,,,,,,,
Stretch Lagoon Camping Area,,,,,Australia,,-19.6744774,127.5859301,,,,,,,,,,,,
Italowie Gap Camp Park,,,,,Australia,,-30.5563083,139.1702634,,,,,,,,,,,,
Dunethin Rock Scout Campsite & Water Activity Centre,Scouts Queensland,,,,Australia,,-26.5790892,153.0117925,,,,,,,,,,,,
Koveda Holiday Park,,River Road,,,Australia,,-33.4013113,150.9783934,+61 2 4566 4305,,http://www.kovedaholidaypark.com.au,,,,,yes,,,,
Crestview Tourist Park,,Donald Road,,,Australia,,-35.3637576,149.2232795,,,,yes,,,,,,,,
NSW Water Ski Gardens,,,,,Australia,,-33.3972424,150.9818498,,,,,,,,yes,,,,
Carinya Ski Ranch,,River Road,,,Australia,,-33.407004,150.9715215,,,https://www.carinyaski.com.au,,,,,,,,,
Iga-Warta Aboriginal Community,,,,,Australia,,-30.5959906,138.9361172,,,,,,,,,,,,
Depot Beach Campground,NPWS,,,,Australia,,-35.6287156,150.3217872,,,https://www.nationalparks.nsw.gov.au/camping-and-accommodation/campgrounds/depot-beach-campground,yes,yes,,,,,,yes,yes
Unknown,,,,,Australia,,-40.9963415,147.391866,,,,,,,,,,,,
Unknown,,,,,Australia,,-21.8817051,125.5089023,,,,,,,,,,,,
Unknown,,,,,Australia,,-33.9337144,115.9728782,,,,,,,,,,,,
Unknown,,,,,Australia,,-33.9343045,115.9714484,,,,,,,,no,,,,
Uralla Caravan Park,,,,,Australia,,-30.6379915,151.5013981,,,,,,,,,,,,
Unknown,,,,,Australia,,-30.6489328,151.4929743,,,,,,,,,,,,
Unknown,,,,,Australia,,-31.1000793,150.9372404,,,,,,,,,,,,
BIG 4 NRMA Atherton Tablelands Holiday Park,,,,,Australia,,-17.2816373,145.4684983,,,,,,,,yes,yes,,,
Unknown,,,,,Australia,,-33.9372544,116.0246426,,,,,,,,,,,,
Ben Ewa,,,,,Australia,,-27.1497899,153.3683754,,,,,,,,,,,,
Murray River Hideaway Holiday Park,,,,,Australia,,-35.8567005,145.3866183,,,https://www.murrayriverhideaway.com.au/,yes,,,,,,,,
Unknown,,,,,Australia,,-35.2487335,150.5002616,,,,,,,,,,,,
Sylvan Caravan Park,,Sydney Road,,,Australia,3061,-37.6696311,144.9567994,,,,,,,,,,,,
Toowoomba Garden City Holiday Park,BIG4,Eiser Street,,QLD,Australia,4350,-27.5878234,151.9366707,,,https://www.big4.com.au/caravan-parks/qld/toowoomba-golden-west/toowoomba-garden-city-holiday-park,,,,,,,,,
Unknown,,,,,Australia,,-35.2676168,150.487998,,,,,,,,,,,,
Bribie Island Caravan Park,,Jacana Avenue,,,Australia,4507,-27.0674711,153.2016546,+61 7 3408 1134,info@bribieislandcaravanpark.com.au,https://www.bribieislandcaravanpark.com.au/,,,,,,,,,
Upper Yarra Reservoir,,,,,Australia,,-37.668874,145.8898194,,,,,,,,,,,,
Mongans Bridge Caravan Park and Holiday Park,,,,,Australia,,-36.5852914,147.0939832,,,,,,,,,,,,
Pinevale camp ground,,,,,Australia,,-21.3107522,148.8357641,,,,,,,,,,,,
Snowy River Holiday Park,,,,,Australia,,-36.5032619,148.8331733,,,,yes,yes,,,yes,,,,
BIG4 Wallaga Lake Holiday Park,,,,,Australia,,-36.373778,150.0701414,,,https://www.big4.com.au/caravan-parks/nsw/south-coast/big4-wallaga-lake-holiday-park,,,,,,,,,
Home Valley Station Campground,,,,,Australia,,-15.722259,127.8313195,,,,,yes,,yes,,,,yes,yes
Wickham Camping Area,,,,,Australia,,-33.7875983,150.9858545,,,,,,,,,,,,
Adelaide Showground Caravan Park,,,,,Australia,,-34.947231,138.5884839,,,https://www.adelaideshowgroundcaravanpark.com.au/,,,,,yes,yes,,,
Crossing Inn Caravan Park,,Skuthorp Road,,,Australia,,-18.1858292,125.5832224,+61 8 9191 5080,,,,,,,,,,,
Holiday Haven Lake Tabourie,,Princes Highway,,,Australia,,-35.4407661,150.4060689,+61 2 4406 3101,,https://www.holidayhaven.com.au/lake-tabourie/,,,,,yes,yes,,,
Wairo Beach Holiday Park,,,,,Australia,,-35.4171847,150.421371,,,,,,,,,,,,
Discovery Parks Burrill Lake,Discovery Parks,Princes Highway,,,Australia,,-35.3890097,150.4414235,+61 2 4455 1621,,https://www.discoveryholidayparks.com.au/caravan-parks/new-south-wales/south-coast-burrill-lake-ulladulla,,,,,yes,yes,,no,
Unknown,,,,,Australia,,-17.3478227,145.9262777,,,,,,,,yes,yes,,,
Unknown,,,,,Australia,,-25.381219,135.4414086,,,,,,,,,,,,
Echo Bend Camp Site,,Dunbars Road,,VIC,Australia,3875,-37.7115595,147.364365,,,,,,,,,,,,
Slaty Creek Campground No2,,,,,Australia,,-37.4658186,143.9047839,,,,,,,,,,,,
Slaty Creek Camp Ground No 3,,,,,Australia,,-37.4675627,143.9086061,,,,,,,,,,,,
Wooramel Riverside Retreat,https://www.facebook.com/WooramelStation,,,,Australia,,-25.7436989,114.2812335,+61 499 425 888,jrsteadman@bigpond.com,https://www.wooramel.com.au/,yes,,,no,no,yes,,,
Glen Helen Homestead Lodge Campground,,,,,Australia,,-23.6854167,132.6736295,+61 8 8956 7489,res@glenhelen.com.au,www.glenhelen.com.au,,,,,yes,,,,
Ormiston Gorge,,,,,Australia,,-23.6325248,132.7264196,,,,,,,,,,,,
Cork Oaks,,,,,Australia,,-37.3098841,143.7082607,,,,,,,,,,,,
Undara Experience,,,,,Australia,,-18.2012935,144.5708731,,,,,,,,,,,,
Undara Experience,,,,,Australia,,-18.2003845,144.5709014,,,,,,,,,,,,
The Dam Campground,,,,,Australia,,-37.3063114,143.7249759,,,,,,,,,,,,
Manna Gums Campground,,,,,Australia,,-37.3160503,143.7207269,,,,,,,,,,,,
Unknown,,,,,Australia,,-26.5139787,148.7769135,,,,,,,,,,,,
Villa Holiday Park,,,,,Australia,,-26.5578907,148.7866644,+61 7 4622 1309,,,,,,,,,,,
Samurai Beach Camp Ground,National Park,,,,Australia,,-32.7629132,152.1311286,,,https://www.nationalparks.nsw.gov.au/camping-and-accommodation/campgrounds/samurai-beach-campground,,,,,,,,,
Manna Gum camping area Main Range NP,,,,,Australia,,-27.980659,152.3467785,,,,,,,,,,,,
Poplar Flat camping area Main Range NP,,,,,Australia,,-27.9797383,152.3435099,,,,,,,,,,,,
Poplar Flat camping area Main Range NP,,,,,Australia,,-27.97895,152.3423141,,,,,,,,,,,,
Jeanneret Beach Campground - Bay of Fires Cons Area,,,,,Australia,,-41.2373548,148.2904458,,,,,,,,,,,,
Swimcart Beach Campground - Bay of Fires Cons Area,,,,,Australia,,-41.2315785,148.2849327,,,,,,,,,,,,
Cosy Corner South Camp Ground,,,,,Australia,,-41.2254685,148.2825186,,,,,,,,,,,,
Cosy Corner North Camp Ground,,,,,Australia,,-41.2210048,148.2817784,,,,,,,,,,,,
Campground 2,Generators permitted,,,,Australia,,-11.1341837,132.1764665,,,,,,,,,,,,
Lakes Bushland Caravan & Tourist Park,,Stephenson Road,,VIC,Australia,3882,-37.7893763,147.7833898,,,https://lakesbushland.com.au/,,,,,yes,,,,
Mylor Adventure Centre,Baptist SA,,,,Australia,,-35.0664548,138.7570109,,,,,,,,,,,,
Hillcrest Tourist Park,,,,,Australia,,-41.3251801,148.296708,,,,,,,,,,,,
Nambour Caravan Park,,,,,Australia,,-26.5883237,152.9671288,,,,,,,,,,,,
Copper City Caravan Park,,Little West Street,,,Australia,,-20.7080894,139.4945119,,mountisa@discoveryparks.com.au,,yes,yes,,,,,,yes,yes
Mount Duckworth Campsite,,,,,Australia,,-33.6158147,115.0272718,,,,,,,,,,,yes,no
Coolamon Caravan Park,,,,,Australia,,-34.8134596,147.2022273,,,,,,,,,,,,
Unknown,,,,,Australia,,-34.5564095,148.3718697,,,,,,,,,,,,
Unknown,,,,,Australia,,-38.3749343,142.2316247,,,,,,,,,,,,
