post_title,post_content,post_address,post_city,post_region,post_country,post_zip,post_latitude,post_longitude,post_tel,post_email,post_website,toilets,shower,bbq,drinking_water,power_supply,sanitary_dump_station,dogs,tents,caravans
Fish Basket Camping Area,Parks Victoria,,,,Australia,,-35.8298093,145.1030552,,,,no,,,,,,,,
Red Tank Lagoon Camping Area 2,Parks Victoria,,,,Australia,,-35.8288612,145.099504,,,,no,,,,,,,,
Red Tank Lagoon Camping Area 1,Parks Victoria,,,,Australia,,-35.8331929,145.0959635,,,,no,,,,,,,,
Sapling Landing Camping Area,Parks Victoria,,,,Australia,,-35.835324,145.0935924,,,,no,,,,,,,,
Punt Paddock Creek Camping Area 2,Parks Victoria,,,,Australia,,-35.8317012,145.088802,,,,no,,,,,,,,
Punt Paddock Creek Camping Area 1,Parks Victoria,,,,Australia,,-35.8266386,145.0870156,,,,no,,,,,,,,
Green Engine Camping Area 2,Parks Victoria,,,,Australia,,-35.8276607,145.0788403,,,,no,,,,,,,,
Green Engine Camping Area 1,Parks Victoria,,,,Australia,,-35.8322883,145.0767267,,,,no,,,,,,,,
Long Landing Camping Area,Parks Victoria,,,,Australia,,-35.8401533,145.0673309,,,,no,,,,,,,,
Big Woodcutter Lagoon Camping Area 3,Parks Victoria,,,,Australia,,-35.8372527,145.0617278,,,,no,,,,,,,,
Big Woodcutter Lagoon Camping Area 2,Parks Victoria,,,,Australia,,-35.8368569,145.0558779,,,,no,,,,,,,,
Big Woodcutter Lagoon Camping Area 1,Parks Victoria,,,,Australia,,-35.8387204,145.0537294,,,,no,,,,,,,,
Nine Panel Bend Camping Area 2,Parks Victoria,,,,Australia,,-35.8379529,145.0491777,,,,no,,,,,,,,
Nine Panel Bend Camping Area 1,Parks Victoria,,,,Australia,,-35.8400207,145.0440091,,,,no,,,,,,,,
Nestrons Bend Camping Area,Parks Victoria,,,,Australia,,-35.8430517,145.0411498,,,,no,,,,,,,,
Campbells Landing Camping Area,Parks Victoria,,,,Australia,,-35.8447432,145.0383872,,,,no,,,,,,,,
Canalla Landing Camping Area,Parks Victoria,,,,Australia,,-35.846987,145.0364774,,,,no,,,,,,,,
Thistle Bend Camping Area,Parks Victoria,,,,Australia,,-35.849222,145.0319123,,,,no,,,,,,,,
Boals Creek Camping Area 2,Parks Victoria,,,,Australia,,-35.8531657,145.023914,,,,no,,,,,,,,
Boals Creek Camping Area 1,Parks Victoria,,,,Australia,,-35.8536005,145.0232434,,,,no,,,,,,,,
Thistle Bed Camping Area 3,Parks Victoria,,,,Australia,,-35.8561962,145.0205666,,,,no,,,,,,,,
Thistle Bed Camping Area 2,Parks Victoria,,,,Australia,,-35.8568701,145.0187856,,,,no,,,,,,,,
Thistle Bed Camping Area 1,Parks Victoria,,,,Australia,,-35.8571222,145.0174499,,,,no,,,,,,,,
Budgee Creek Camping Area 1,Parks Victoria,,,,Australia,,-35.8554179,145.0051171,,,,no,,,,,,,,
Budgee Creek Camping Area 2,Parks Victoria,,,,Australia,,-35.8564179,145.0073165,,,,no,,,,,,,,
Cutting Creek Camping Area,Parks Victoria,,,,Australia,,-35.9145277,144.9561265,,,,no,,,,,,,,
War Creek Camping Area,Parks Victoria,,,,Australia,,-35.912326,144.960984,,,,no,,,,,,,,
Double Holes Camping Area,Parks Victoria,,,,Australia,,-35.8695472,144.9694812,,,,no,,,,,,,,
Tarragon Lodge Camping Area,Parks Victoria,,,,Australia,,-35.860033,144.9817389,,,,no,,,,,,,,
Wasers Beach,Parks Victoria,,,,Australia,,-35.8603569,145.3490782,,,,no,,,,,,,,
2th Downstream of Wasers Beach,Parks Victoria,,,,Australia,,-35.8626307,145.3444701,,,,no,,,,,,,,
3th Downstream of Wasers Beach,Parks Victoria,,,,Australia,,-35.8628915,145.3420722,,,,no,,,,,,,,
4th Downstream of Wasers Beach,Parks Victoria,,,,Australia,,-35.8612134,145.339036,,,,no,,,,,,,,
5th Downstream of Wasers Beach,Parks Victoria,,,,Australia,,-35.8605352,145.3359568,,,,no,,,,,,,,
6th Downstream of Wasers Beach,Parks Victoria,,,,Australia,,-35.8544875,145.3292727,,,,no,,,,,,,,
7th Downstream of Wasers Beach,Parks Victoria,,,,Australia,,-35.8550962,145.3225565,,,,no,,,,,,,,
8th Downstream of Wasers Beach,Parks Victoria,,,,Australia,,-35.8547657,145.3191233,,,,no,,,,,,,,
The Steps Camping Area,Parks Victoria,,,,Australia,,-35.8599004,145.3101915,,,,no,,,,,,,,
Browns Camping Area 3,Parks Victoria,,,,Australia,,-35.8596939,145.3047144,,,,no,,,,,,,,
Browns Camping Area 1,Parks Victoria,,,,Australia,,-35.8588418,145.2928457,,,,no,,,,,,,,
Clarkes Camping Area,Parks Victoria,,,,Australia,,-35.8569201,145.2843538,,,,no,,,,,,,,
McLeans Camping Area 2,Parks Victoria,,,,Australia,,-35.850933,145.2846757,,,,no,,,,,,,,
McLeans Camping Area 1,Parks Victoria,,,,Australia,,-35.8540114,145.2810788,,,,no,,,,,,,,
Black Engine Lagoon Camping Area 3,Parks Victoria,,,,Australia,,-35.8540701,145.2783591,,,,no,,,,,,,,
Black Engine Lagoon Camping Area 2,Parks Victoria,,,,Australia,,-35.8476784,145.2737832,,,,no,,,,,,,,
Black Engine Lagoon Camping Area 1,Parks Victoria,,,,Australia,,-35.8551483,145.2681237,,,,no,,,,,,,,
Lupmans Camping Area,Parks Victoria,,,,Australia,,-35.85207,145.2635103,,,,no,,,,,,,,
Arnalds Camping Area,Parks Victoria,,,,Australia,,-35.8417819,145.2637249,,,,no,,,,,,,,
Boss Beach Camping Area,Parks Victoria,,,,Australia,,-35.8367417,145.2592617,,,,no,,,,,,,,
The Wattles Camping Area 2,Parks Victoria,,,,Australia,,-35.8333017,145.2457756,,,,no,,,,,,,,
Tongalong Camping Area,Parks Victoria,,,,Australia,,-35.8330103,145.2307552,,,,no,,,,,,,,
Tongalong Beach Camping Area,Parks Victoria,,,,Australia,,-35.8334234,145.2243715,,,,no,,,,,,,,
Bunyip Hole Camping Area 3,Parks Victoria,,,,Australia,,-35.8357545,145.2232477,,,,no,,,,,,,,
Bunyip Hole Camping Area 2,Parks Victoria,,,,Australia,,-35.8362133,145.2224538,,,,no,,,,,,,,
Bunyip Hole Camping Area 1,Parks Victoria,,,,Australia,,-35.8394532,145.2246049,,,,no,,,,,,,,
Katarapko Campsite 07 (Booky Cliffs),National Parks and Wildlife Service South Australia,,,,Australia,,-34.3252669,140.5983507,,,https://www.parks.sa.gov.au/parks/murray-river-national-park/booking/83204,,,,,,,,yes,yes
Goomeri Caravan and Bush Camp,Cameron and Nicole Miller - Damper and Dusk Bush Retreat,Wide Bay Highway,,QLD,Australia,4601,-26.2130994,152.085175,+61 4 9234 0783,,https://www.goomeribushcamp.com.au/,yes,yes,,,,yes,,yes,yes
Cunningham Weir Free Camp,,,,,Australia,,-28.7368171,150.9608159,,,,no,,,,,,,,
Ingenia Holidays South West Rocks,,Gordon Young Drive,,,Australia,,-30.8890912,153.0335978,,,,,,,,yes,yes,,,
Free camp,,,,,Australia,,-28.0044029,148.6312382,,,,,,,,,,,,
Unknown,,,,,Australia,,-33.6318259,151.1198911,,,,no,no,,,,,,yes,no
Carlindi Camp . PLS,,,,,Australia,,-21.0271867,118.9030606,,,,,,,,,,,,
Sculptures in the Scrub Campground,,,,,Australia,,-30.9976236,149.2319461,,,,,,,,,,,,
Border Camping Area,Parks Vic,,,,Australia,,-34.7055041,140.9690406,,,,,,,,,,,,
Unknown,Parks Vic,,,,Australia,,-34.7155988,141.1797934,,,,,,,,,,,,
The Wattles,,,,,Australia,,-35.9475024,141.8734344,,,,,,,,,,,,
Nutbush Retreat,,,,,Australia,,-32.628002,137.4287093,,,https://www.nuttbush.com.au/,yes,yes,,,yes,,,,
Cork Oaks Campground,,,,,Australia,,-37.3102752,143.7082348,,,,,,,,,,,,
Ups and Downs Caravan Park Farm Stay,,Hartley Lane,,,Australia,,-26.5134868,148.7766891,,,,,,,,yes,yes,,,
Little Yabba Creek Rest Area,,,,,Australia,,-26.6241523,152.6903636,,,,,,,,,,,,
Camp Coorong,Al-Taqwa College,Cranswick Road,,VIC,Australia,3875,-37.9507857,147.6579613,,,https://al-taqwa.vic.edu.au/about-us/our-campuses/camp-coorong/,,,,,,,,,
Unknown,,,,,Australia,,-22.6907311,121.2134621,,,,,,,,,,,,
Unknown,,,,,Australia,,-22.6546144,121.2199201,,,,,,,,,,,,
Unknown,,,,,Australia,,-22.7559692,121.1088449,,,,,,,,,,,,
Unknown,,,,,Australia,,-22.7988269,120.6250613,,,,,,,,,,,,
Kurri Ngawanthi (Creek Campground),Friends of the Heysen Trail,,,,Australia,,-35.6166189,138.3955879,,,,,,,,,,,,
Slippery Dip Camp area,,,,,Australia,,-31.3380804,138.6081892,,,,,,,,,,,,
Boshack Outback - Perth Farmstay,,Wattening Spring Road,,,Australia,,-31.321205,116.5632429,,,,,,,,,,,,
Camp Canobolas,Scouts NSW,,,,Australia,,-33.3040653,149.0237674,,,https://www.orange.nsw.gov.au/site/scoutcamp,,,,,,,,,
Campsite C10,Parks Victoria,Shoreline Drive,,VIC,Australia,,-38.2559385,147.3440045,,,,,,,,,,,,
Muttonbird Campsite,Department of Parks & Wildlife,,,,Australia,,-35.0430047,117.7251393,,,https://www.bibbulmuntrack.org.au,yes,no,,,,,,yes,no
The Jungo,"A small clearing by the path, room for about one to two small tents.",,,,Australia,,-33.7195742,151.0579051,,,,,no,,,,,,yes,no
Eudunda Community Caravan Park,,,,,Australia,,-34.1792412,139.0885569,,,,yes,yes,,,yes,,,,
Free Camping,,,,,Australia,,-17.3992779,133.4541912,,,,,,,,,,,,
Free Camping,,,,,Australia,,-23.3863491,133.813382,,,,,,,,,,,,
Doon Goonge,NPWS,,,,Australia,,-29.9087996,152.5099326,,,https://www.nationalparks.nsw.gov.au/camping-and-accommodation/campgrounds/doon-goonge-campground,,,,,,,,,
South Lefroy,,,,,Australia,,-22.5520724,113.6646312,,,,,,,,,,,,
Grassy Creek Campsite,,,,,Australia,,-29.4605982,152.2746267,,,,,,,,,,,,
Quambone Primitive Campground,Coonamble Shire,,,,Australia,,-30.9325274,147.8720654,,,,yes,no,,,no,,,yes,yes
Unknown,,,,,Australia,,-23.2216699,122.7645563,,,,,,,,,,,,
Unknown,,,,,Australia,,-23.3433123,122.6775835,,,,,,,,,,,,
Redbank Hut Camping Area,Redbank Hut bush camping area is an open cleared area near the old Redbank Hut.,,,,Australia,,-28.9831929,147.1047192,,,https://parks.des.qld.gov.au/parks/culgoa-floodplain/camping/redbank-hut,,,,,,,,,
Nebine Creek Camping Area,Nebine Creek camping area is an open area shaded by coolibah trees. The camping area can be reached by 4WD (only). It is accessible for high clearance off-road camper trailers only. It is not accessible for caravans and buses.,,,,Australia,,-28.8599134,146.8598296,,,https://parks.des.qld.gov.au/parks/culgoa-floodplain/camping/nebine-creek,,,,,,,,,
Byra Lagoon Camping Area,Queensland Department of Environment and Science,,,,Australia,,-28.9799181,147.2221195,,,https://parks.des.qld.gov.au/parks/culgoa-floodplain/camping/byra-lagoon,,,,,,,,,
Rotary Shelter Shed Camping Area,,,,,Australia,,-24.9140382,148.0253949,,,https://parks.des.qld.gov.au/parks/carnarvon-mount-moffat/camping/rotary-shelter-shed-mount-moffatt,,,,,,,,,
West Branch Walkers' Camp,,,,,Australia,,-24.971984,148.013273,,,https://parks.des.qld.gov.au/parks/carnarvon-great-walk/camping/west-branch-walkers,,,,,,,,,
Ourimperee Waterhole,,,,,Australia,,-28.8831775,144.5108335,,,https://parks.des.qld.gov.au/parks/currawinya/camping/ourimperee-waterhole,,,,,,,,,
Myninya Camping Area,,,,,Australia,,-28.540234,144.3328696,,,https://parks.des.qld.gov.au/parks/currawinya/camping/myninya,,,,,,,,,
Corni Paroo Camping Area,,,,,Australia,,-28.6830405,144.7954969,,,https://parks.des.qld.gov.au/parks/currawinya/camping/corni-paroo,,,,,,,,,
Caiwarro Waterhole Camping Area,,,,,Australia,,-28.7413401,144.7335317,,,https://parks.des.qld.gov.au/parks/currawinya/camping/caiwarro-waterhole,,,,,,,,,
Gum Hole Camping Area,,,,,Australia,,-23.6710774,140.9859347,,,https://parks.des.qld.gov.au/parks/diamantina/camping/gum-hole,,,,,,,,,
Cooyal Hotel Free Campsite,,,,,Australia,,-32.440623,149.789173,,,,,,,,,,,,
Emu Swamp camping area,,,,,Australia,,-19.4117006,144.1679187,,,https://parks.des.qld.gov.au/parks/blackbraes/camping/emu-swamp,,,,,,,,,
Munall Campground,,,,,Australia,,-23.7946087,149.0674914,,,https://parks.des.qld.gov.au/parks/blackdown-tableland/camping/munall,,,,,,,,,
Wadlows Yards camping area,,,,,Australia,,-23.3376167,149.7882148,,,https://parks.des.qld.gov.au/parks/goodedulla/camping/wadlows-yards,,,,,,,,,
Five Rocks camping area,,,,,Australia,,-22.8082362,150.8034637,,,https://parks.des.qld.gov.au/parks/byfield/camping/five-rocks,,,,,,,,,
Old forestry camp,,,,,Australia,,-18.5186396,145.7646818,,,,,,,,,,,,
Walbundrie Camping Ground,,,,,Australia,,-35.6896486,146.7191935,+61 4 2729 9065,,https://www.visitgreaterhume.com.au/Greater-Hume-Villages/Walbundrie/Explore-Eat-Stay/Walbundrie-Primitive-Camping-Ground,yes,yes,,,yes,,,yes,yes
Walla Walla Primitive Camping Ground,,,,,Australia,,-35.7668354,146.902273,+61 4 5665 0868,,,yes,yes,,,yes,yes,,yes,yes
Unknown,,,,,Australia,,-30.6678293,150.0560021,,,,,,,,,,,,
The Wall,QPWS,,,,Australia,,-24.4630882,150.9256482,,,,,,,,,,,,
Griffiths Creek Camping Area,QPWS,,,,Australia,,-24.3674313,150.9777582,,,,,,,,,,,yes,
Razorback Camping Area,QPWS,,,,Australia,,-24.3718222,150.9664497,,,,,,,,,,,yes,yes
Burrumbreet Cave,,,,,Australia,,-35.2785378,150.1288158,,,,,,,,,,,,no
Unknown,,,,,Australia,,-34.0763372,150.997171,,,,,,,,,,,,
Munall Campground,,,,,Australia,,-23.7943187,149.0671869,,,,,,,,,,,,
Wundu Camping Area,,,,,Australia,,-18.5366138,143.8604183,,,,,,,,,,,,
Cobbold Gorge camping area,,,,,Australia,,-18.7962408,143.4220859,,,,,,,,,,,,
Unknown,,,,,Australia,,-27.2582851,152.0460306,,,,yes,,,,yes,customers,,yes,yes
Bundaberg CMCA RV Park,,Civic Avenue,,,Australia,4670,-24.8752397,152.3453146,,enquiries@cmca.net.au,http://www.CMCA.net.au,,,,,,,,,
Karnkendi Campsite,,Wade Street,,,Australia,3292,-38.0467939,141.011506,,,http://www.karnkendi.pcsa.org.au/,,,,,,,,,
Hallet Recreation Ground,,,,,Australia,,-33.40717,138.8898115,,,,yes,yes,,,,,,,
Cooroy RV Stopover,,Mary River Road,,,Australia,4563,-26.4137689,152.9079767,+61 458 650 285,,,,,,,,,,,
Daysdale Recreation Reserve,,,,,Australia,,-35.6345396,146.3026692,,,,yes,yes,,,no,,,yes,yes
Downey Creek camping area,,,,,Australia,,-17.675036,145.7838367,,,,,,,,,,,,
Hinson Creek camping area,,,,,Australia,,-17.6645492,145.633241,,,,,,,,,,,,
Cannabullen Creek camping area,,,,,Australia,,-17.6382387,145.5777041,,,,,,,,,,,,
Koolmoon Creek Headwaters camping area,,,,,Australia,,-17.6800173,145.5375067,,,,,,,,,,,,
Walters Waterhole camping area,,,,,Australia,,-17.745008,145.5658261,,,,,,,,,,,,
Cochable Creek camping area,,,,,Australia,,-17.7448877,145.6305243,,,,,,,,,,,,
Carter Creek camping area,,,,,Australia,,-17.6976945,145.6306857,,,,,,,,,,,,
Lepidozamia Bush Camp,,,,,Australia,,-27.2778208,152.758808,,,,,,,yes,,,,yes,
Ferns Hideaway Resort and Caravan Park,,Cahills Road,,QLD,Australia,4703,-22.8242863,150.661777,+61 408 351 235,,,,,,,,,,,
EJ stealth camp,,,,,Australia,,-20.2759673,148.6987445,,,,,,,,,,,,
Davies Creek Campground,,,,,Australia,,-17.0039534,145.5698163,,,,,,,,,,,,
Tattersalls Camping,,,,,Australia,,-32.5858703,151.9671259,,,,,,,,,,,,
Unknown,,,,,Australia,,-36.0090304,146.2622094,,,,no,,,,,,,,
Unknown,,,,,Australia,,-35.1267368,150.6997613,,,,,,,,,,,,
Lake Kara Campsite,,,,,Australia,,-41.2641911,145.8472888,,,,,,,,,,,,
The Cove Glamping Area,,,,,Australia,,-35.1820698,150.5947395,,,,,,,,,,,,
Woko Campground - Woko NP,,,,,Australia,,-31.7999907,151.7920232,,,,,,,,,,,,
Breeza Hall,,,,,Australia,,-31.2467547,150.4680378,,,,yes,no,,,,,,yes,yes
Lorella Springs Wilderness Park,,,,,Australia,,-15.7205598,135.6406835,,,,,,,,,,,,
Unknown,,,,,Australia,,-14.7721126,134.8050088,,,,,,,,,,,,
Yurrlmundji Campground,,,,,Australia,,-14.7593519,134.7894466,,,,,,,,,,,,
Running Creek Parklands,,,,,Australia,,-26.8683439,152.7850121,,,https://runningcreek.net.au/,,,,,,,,,
Unknown,,,,,Australia,,-36.0414347,146.3584471,,,,,,,,,,,,
Stantons Bend Campsite,,,,,Australia,,-36.0407667,146.3538122,,,,,,,,,,,,
Unknown,,,,,Australia,,-36.0407928,146.3599223,,,,,,,,,,,,
Unknown,,,,,Australia,,-36.0491727,146.3678455,,,,,,,,,,,,
Unknown,,,,,Australia,,-36.0508425,146.3684919,,,,,,,,,,,,
Unknown,,,,,Australia,,-36.0440958,146.3798819,,,,,,,,,,,,
Unknown,,,,,Australia,,-36.0461452,146.3755757,,,,,,,,,,,,
Unknown,,,,,Australia,,-36.0421374,146.3769382,,,,,,,,,,,,
Taylors Bend,,,,,Australia,,-36.0362034,146.2906998,,,,no,no,,no,no,,,yes,no
Unknown,,,,,Australia,,-36.047633,146.3002163,,,,,,,,,,,,
Unknown,,,,,Australia,,-36.0366958,146.301088,,,,,,,,,,,,
Unknown,,,,,Australia,,-36.0435038,146.3005489,,,,,,,,,,,,
Lake Maroon Camp Ground,,,,,Australia,,-28.1953285,152.6542229,,,,,,,,,,,,
Mick Murray Campsite,,,,,Australia,,-33.4573442,116.2334724,,,,,,,,,,,,
Old Forestry Camping Area,,,,,Australia,,-24.5273086,151.4710246,,,,,,,,,,,,
Glut Campsite,,,,,Australia,,-37.292969,143.2681513,,,,,,,,,,,,
Burrumbeet Brook camp site,"~2 sites on grass, 1 small site in the rocks. Each have firepits. Small pit toilet located on the other side of the track by ~50m",,,,Australia,,-35.2757053,150.1228599,,,,,,,,,,,,
Rom's Bog,,,,,Australia,,-37.2852401,142.0729004,,,,,,,,,,,,
Bundarra Community Caravan Park,Uralla Shire Council,,,,Australia,,-30.1710545,151.0771749,,,,yes,yes,,,yes,,,yes,yes
Mt Dutton Bay Woolshed,Private,,,,Australia,,-34.5308292,135.4322914,,,,yes,yes,,,,,,,
Nymagee Recreation Reserve,,,,,Australia,,-32.0639565,146.3143123,,,,yes,no,,,yes,,,yes,yes
Coulta,,,,,Australia,,-34.3874522,135.4671715,,,,yes,no,,,,,,,
Parachilna Rest Area,,,,,Australia,,-31.1332373,138.3968139,,,,yes,no,,,,,,,
Upper Horton Campground,,,,,Australia,,-30.1397438,150.4433033,,,,yes,no,,,yes,,,yes,yes
Carpenter Rocks Campgrond,,,,,Australia,,-37.9127748,140.3993686,,,,yes,no,,,,,,,
Wombat Recreation Sports Oval,Wombat Progress Association,,,,Australia,,-34.4292191,148.2464251,,,,yes,yes,,,yes,,,yes,yes
Frances Recreation Ground,,,,,Australia,,-36.7119189,140.9591892,,,,yes,no,,,,,,,
Wethalle Showground Camping,Wethalle Showground Trust,,,,Australia,,-33.8699622,146.6208383,,,,yes,yes,,,yes,,,,
Carinda Primitive Campground,Walgett Shire Council,,,,Australia,,-30.4604489,147.6896684,,,,,,,,,,,,
Coolatai Hall,Shire of Gwydir,,,,Australia,,-29.2505054,150.7522284,,,,yes,yes,,,,,,yes,yes
Perponda Oval,,,,,Australia,,-34.9837865,139.8150555,,,,yes,no,,,,,,,
Unknown,,,,,Australia,,-26.2630071,152.876192,,,,,,,,,,,,
Latham Recreation Reserve,Community and Shire of Perenjori,,,,Australia,,-29.7590053,116.4477406,,,,yes,yes,,,yes,,,,
Girilambone CWA Memorial Park,,,,,Australia,,-31.2478788,146.9067293,,,,yes,yes,,,yes,,,,
Bindoon,,,,,Australia,,-31.3856676,116.0974423,,,,yes,yes,,,yes,,,,
Tonebridge Bridge Rest Area,,,,,Australia,,-34.2275179,116.7043748,,,,,,,,,,,yes,yes
Unknown,,,,,Australia,,-28.8978496,115.8641831,,,,yes,yes,,,,,,,
Munall Campground,,Goon Goon Dina,,,Australia,,-23.7935116,149.0657844,,,,,,,,,,,,
Woolomin Reserve,Tamworth Regiional Council,,,,Australia,,-31.303884,151.1472857,,,,yes,no,,,yes,,,yes,yes
Red Lion Tavern Freecamp,Red Lion Tavern,,,,Australia,,-29.9267467,151.7235592,+61 2 6733 3271,,,yes,yes,,,,,,,
Gidgee's Bush Camp,,Old Charleville Road,,QLD,Australia,4468,-26.4199913,147.1011695,+61 7 4654 8380,gidgeesmith@bigpond.com,https://www.gidgeesbushcamp.com.au/,yes,yes,,,yes,,,yes,yes
Tenterfield Endurance Riding Club Inc,Tenterfield Endurance Riding Club Inc,,,,Australia,,-28.9295285,152.3113466,,,https://tenterfieldendurance.com.au/,yes,yes,,,,,,,
Primrose Park Freedom Camping,,,,,Australia,,-38.3970434,146.282034,,,,,,,,,,,,
Cumborah Recreation Reserve,Walgett Shire Council,,,,Australia,,-29.7457649,147.7716538,,,,yes,no,,,,,,,
Kurth Kiln Camping and Picnic (2nd),,,,,Australia,,-37.8999527,145.5774006,,,,yes,no,,,,,,,
Baan Baa Old School Campground,Private,Bundah Street,,NSW,Australia,2390,-30.5999071,149.9515708,+61 427 289 339,,,yes,yes,,,,,,,
Wollomombi Store Freecamp,Wollomombi Store,Wollomombi Village Road,,NSW,Australia,2350,-30.5111388,152.0430836,,,,yes,no,,,no,,,yes,yes
Lollback Rest Area,,,,,Australia,,-29.577608,152.5567548,,,,yes,no,,,,,,,
Mount Surprise Tourist Van Park & Motel,,,,,Australia,,-18.1482172,144.3185515,,,https://www.mtsurprisetouristpark.com.au/,,,,,,,,,
Bedrock Village,,,,,Australia,,-18.1441683,144.3203357,,,http://www.bedrockvillage.com.au/,,,,,,,,,
Manildra Showground Camping,,,,,Australia,,-33.1780546,148.6892174,+61 458 673 647,,,yes,yes,,,yes,yes,,,
Escort Rock Rest Area,,,,,Australia,,-33.4009836,148.4099491,,,,yes,no,,,,,,yes,yes
Binalong Recreation Ground,Yass Valley Council,,,,Australia,,-34.6746837,148.6345212,,,,yes,yes,,,,,,yes,yes
Wakool River,,,,,Australia,,-35.4996514,144.458056,,,,yes,no,,,,,,,
Conargo Sportsground,Edwards River Council,,,,Australia,,-35.3050964,145.181778,,,,yes,no,,yes,yes,,,yes,yes
Billabong Creek,,,,,Australia,,-35.2947373,145.1806779,,,,no,no,,,,,,yes,yes
Grey Gum International Cafe,Grey Gum Cafe,,,,Australia,,-33.0298979,150.6734737,+61 2 6579 7015,,,yes,yes,,,,,,,
Ivanhoe Servo,,,,,Australia,,-32.90053,144.3021255,,,,yes,yes,,,yes,,,,
North Palmer River Campsite,,,,,Australia,,-16.0187577,144.2772602,,,http://www.npsr.qld.gov.au/parks/palmer-goldfield,,,,,,,,,
Tooraweenah Rest Area,,,,,Australia,,-31.4690985,148.9203008,,,,yes,no,,,,,,,
Florida Rest Area,,,,,Australia,,-31.5321391,146.3504075,,,,yes,no,,,,,,yes,yes
MacCullochs Range Rest Area,,,,,Australia,,-31.6951811,143.8141255,,,,yes,no,,,,,,yes,yes
Barwon River Campsite,Balonne Shire Council,,,,Australia,,-28.9759087,148.9834021,,,,yes,yes,,,,,,yes,yes
Baden Park Rest Area,,,,,Australia,,-31.7133908,144.143309,,,,yes,no,,,,,,yes,yes
Bendemeer Tourist Park,,,,,Australia,,-30.880859,151.1580222,+61 2 6769 6604,,,yes,yes,,,yes,,,yes,yes
Booligal Hotel Camping,Booligal Hotel,,,,Australia,,-33.8692577,144.8848079,,,,yes,yes,,,,,,,
Currabubula Freedom Camping,Liverpool Plains Shire Council,,,,Australia,,-31.2613029,150.7396494,,,,yes,yes,,,no,,,yes,yes
Billabong Creek,,,,,Australia,,-35.5932952,146.5763137,,,,no,no,,,,,,,yes
Drovers Camp,,Elderslie Road,,NSW,Australia,,-32.6256476,151.351679,,,,yes,yes,,,,,,,
Finley Showground Camping,Berrigan Shire,,,,Australia,,-35.6522494,145.5668395,,,,yes,yes,,,yes,,,,
Hair of the Dog Inn Camping,,,,,Australia,,-32.195668,148.8982587,,,,yes,yes,,,yes,,,,
Milton Showground Primitive Camping Ground,Shoulhaven City Council,,,,Australia,,-35.3203527,150.4300737,,,https://www.shoalhaven.bookable.net.au,yes,yes,,,,yes,,yes,yes
Mount Hope Community Hall,,,,,Australia,,-32.8380153,145.8786913,,,,yes,yes,,,yes,,,yes,yes
Spring Ridge Freedom Camp,Liverpool Plains Shire Council,,,,Australia,,-31.3968933,150.2443697,,,,yes,yes,,,no,,,yes,yes
Wadeville Woolies Campground,,Link Road,,NSW,Australia,2474,-28.5657629,153.1281584,,,,yes,yes,,,yes,,,,
Werris Creek Freedom Camp,Liverpool Plains Shire Council,,,,Australia,,-31.3391944,150.649473,,,,yes,yes,,,no,,,yes,yes
Chatsworth,,,,,Australia,,-27.601382,153.2214541,,,,,,,,,,,,
John Oxley,,,,,Australia,,-27.600474,153.222707,,,,,,,,,,,,
North Ridge,,,,,Australia,,-27.6003784,153.2242039,,,,,,,,,,,,
Gold Coast,,,,,Australia,,-27.6024317,153.2186716,,,,,,,,,,,,
Rob's Kitchen,,,,,Australia,,-27.6010756,153.2176443,,,,,,,,,,,,
Toohey Forest,,,,,Australia,,-27.6004219,153.2201065,,,,,,,,,,,,
Moreton Bay District,,,,,Australia,,-27.6008249,153.2162857,,,,,,,,,,,,
Albert Lindsay,,,,,Australia,,-27.606598,153.2268458,,,,,,,,,,,,
Unknown,Summerstar,,,,Australia,,-22.6971221,117.7624431,,,,,,,,,,,,
N'Dhala Gorge Campground,NT Parks,,,,Australia,,-23.6389089,134.4630277,,,,yes,no,,no,no,,,yes,yes
Unknown,,,,,Australia,,-22.4684201,135.0849724,,,,,,,,,,,,
Unknown,,,,,Australia,,-30.288685,145.5629897,,,,,,,,,,,,
Jakem Farm 4x4,,,,,Australia,,-35.1144012,138.9871822,,,https://www.jakemfarm.com.au/,,,,,,,,,
Crystal Creek Beach Camping,,,,,Australia,,-18.920065,146.3158344,,,,,,,,,,,,
Ungarie Showground Camping,,,,,Australia,,-33.6360625,146.9789191,,,,yes,yes,,,yes,yes,,,
Bulla Park Rest Area,,,,,Australia,,-31.5583014,144.6261021,,,,no,no,,,,,,yes,yes
Lilydale Rest Area,,,,,Australia,,-31.5864941,144.8748185,,,,yes,no,,,,,,yes,yes
Unknown,,,,,Australia,,-36.8501865,145.0659391,,,,,,,,,,,,
Unknown,,,,,Australia,,-36.5960476,145.2362736,,,,,,,,,,,,
Ganmain Showground Camping,,,,,Australia,,-34.7880383,147.0467341,,,,yes,yes,,,yes,,,,
Unknown,,,,,Australia,,-34.9370788,146.2946259,,,,no,,,,,,,yes,yes
Lyndhurst Village Primitive Camprground,Blayney Shire Council,,,,Australia,,-33.6739372,149.0381817,,,,yes,no,,,no,yes,,yes,yes
Bendick Murrell Rest Area,,,,,Australia,,-34.1675536,148.4583262,,,,yes,no,,,,,,,
Gravel Pull Off - no toilet,,,,,Australia,,-32.2787186,118.816945,,,,,,,,,,,,
Mandurama East Rest Area,,,,,Australia,,-33.6400932,149.1015387,,,,no,no,,,,,,,
Cumalong Campsite,,,,,Australia,,-35.8083146,144.9631271,,,,,,,,,,,,
Edward River Bridge Campsite 5,,,,,Australia,,-35.8075598,144.9602813,,,,,,,,,,,,
Edward River Bridge Campsite 1,,,,,Australia,,-35.8111118,144.9598145,,,,,,,,,,,,
Edward River Bridge Campsite,,,,,Australia,,-35.8093043,144.9591091,,,,,,,,,,,,
Old Bara Campground,,Bara Road,,,Australia,,-32.5773709,149.8060235,,,,yes,no,,,,,,,
Bar and Grill - Camping - sign,,,,,Australia,,-32.9333691,149.8909217,,,,,,,,yes,,,,
Boondooma Homestead,Boondooma Museum & Heritage Association Inc.,,,,Australia,,-26.2028944,151.292186,,,,yes,yes,,,yes,,,yes,yes
Karalee Rock and Dam Campground,,,,,Australia,,-31.2498247,119.840792,,,,yes,no,,,,,,,
Bluff Hotel Campground,,,,,Australia,,-23.5818035,149.0707572,,,,yes,yes,,,yes,,,,
Exhibition Park Camground,,,,,Australia,,-35.2298369,149.1453035,,,,yes,yes,,yes,yes,yes,,yes,yes
Fishermans Bend Campsite,,,,,Australia,,-35.8263417,145.0760173,,,,,,,,,,,,
Unknown,,,,,Australia,,-35.8461761,145.0249913,,,,,,,,,,,,
Douglas Campsite,,,,,Australia,,-35.8423904,145.0359683,,,,,,,,,,,,
Nestrons Campsite,,,,,Australia,,-35.8377637,145.0402647,,,,,,,,,,,,
Cecil Plains Apex Park,Western Downs Regional Council,,,,Australia,,-27.5326981,151.2048631,,,,yes,no,,yes,no,no,,yes,yes
Millar Vale Creek Park,Southern Downs Regional Council,,,,Australia,,-28.0652846,152.2423419,,,,yes,no,,,,,,yes,yes
George and Gladys Hasted Rest Area,,,,,Australia,,-22.7728017,140.597692,,,,yes,yes,,,,,,,
Top End Beach Campsite,,,,,Australia,,-35.8658488,145.3543474,,,,,,,,,,,,
Paradise Beach Campsite,,,,,Australia,,-35.855231,145.2841473,,,,,,,,,,,,
Unknown,,,,,Australia,,-35.8588374,145.2950075,,,,,,,,,,,,
Unknown,,,,,Australia,,-35.8577831,145.3034028,,,,,,,,,,,,
Unknown,,,,,Australia,,-35.8502232,145.3227188,,,,,,,,,,,,
Scotts Beach Campsite,,,,,Australia,,-35.8511776,145.2647308,,,,,,,,,,,,
House Creek Campsite,,,,,Australia,,-35.8376571,145.1723796,,,,,,,,,,,,
Unknown,,,,,Australia,,-35.8333343,145.1891541,,,,,,,,,,,,
Honeymoon Bend Campsite,,,,,Australia,,-35.8363764,145.1928127,,,,,,,,,,,,
Unknown,,,,,Australia,,-35.8351772,145.213632,,,,,,,,,,,,
Pinch Gut Campsite,,,,,Australia,,-35.8267028,145.134535,,,,,,,,,,,,
1818 Bend Campsite,,,,,Australia,,-35.8274346,145.139206,,,,,,,,,,,,
Wire Fence Landing Campsite,,,,,Australia,,-35.8311561,145.1605051,,,,,,,,,,,,
St John's Campsite,,,,,Australia,,-35.8247988,145.0909585,,,,,,,,,,,,
Kangaroo Bend Campsite,,,,,Australia,,-35.8305856,145.0942093,,,,,,,,,,,,
Unknown,,,,,Australia,,-35.8281163,145.0943339,,,,,,,,,,,,
Hooked Leaf Wattle Campsite,,,,,Australia,,-35.8249837,145.1007807,,,,,,,,,,,,
Cherry Tree Campsite,,,,,Australia,,-35.8223413,145.1107505,,,,,,,,,,,,
Potts Campsite,,,,,Australia,,-35.8212343,145.1166299,,,,,,,,,,,,
Unknown,,,,,Australia,,-35.8271867,145.1258031,,,,,,,,,,,,
Jimbour Park / Jimbour Community Rest Area,Western Downs Regional Council,,,,Australia,,-26.963938,151.2165298,,,,yes,no,,,,,,yes,yes
Split Rock Dam,Tamworth Regional Council,,,,Australia,,-30.5638356,150.6761588,,,,yes,yes,,,,,,yes,yes
Springdale Rest Area,,,,,Australia,,-34.4676153,147.7259916,,,,yes,no,,,,,,,
Baerami Community Hall,Baerami Community Hall,,,,Australia,,-32.3865003,150.4667779,,,,yes,,,,,,,,
Abermain Bowling Club - SC only 72 hrs,,,,,Australia,,-32.8072175,151.4269143,,,,no,no,,,,,,,
Jamberoo Park Campground,,,,,Australia,,-34.6463883,150.7750428,,,,yes,no,,,,,,,
Mamanga Campground,NSW National Parks and Wildlife Service,,,,Australia,,-34.664328,143.5137282,,,,yes,no,,,,,,,
Marsden Rest Area - Northbound,,,,,Australia,,-33.7664384,147.5169234,,,,yes,no,,,,,,,
Unknown,,,,,Australia,,-32.312274,142.484393,,,,no,no,,,,,,yes,yes
Woolbrook Hall,,,,,Australia,,-30.9657929,151.3454109,+61 2 6777 5813,,https://www.tamworth.nsw.gov.au/about/the-council/groups-and-committees/section-355-committees/woolbrook-hall-and-park-committee,yes,yes,,,,,,yes,yes
Jimmy's bend campground,,,,,Australia,,-37.1249325,145.9109209,,,,,,,,,,,,
Dumbbells campground,,,,,Australia,,-37.1291904,145.908223,,,,,,,,,,,,
Deanos Springwater Smoked Trout,,,,,Australia,,-30.2983979,151.6668729,,,https://www.deanossmokedtrout.com.au/,,,,,,,,,
The big dam - number 7 dam,,,,,Australia,,-23.6434083,150.4052674,,,,,,,,,,,,
Seniors Ridge,,,,,Australia,,-27.6031288,153.2199981,,,,,,,,,,,,
Unknown,,,,,Australia,,-36.885209,147.1267819,,,,,,,,,,,,
Federation Hut,,,,,Australia,,-36.9014556,147.1227582,,,,yes,no,,yes,no,,,,
Piallamore Recreation Reserve - Only open during CMF,,,,,Australia,,-31.1647512,151.0596831,,,,,,,,,,,,
Macquarie Heads Pine Forest,,,,,Australia,,-42.216989,145.2540636,,,,,,,,,,,,
Unknown,,,,,Australia,,-42.2084467,145.273405,,,,,,,,,,,,
Unknown,,,,,Australia,,-42.2148178,145.2859738,,,,,,,,,,,,
Unknown,,,,,Australia,,-42.2161666,145.2857405,,,,,,,,,,,,
Pinnarendi Station Stay & Cafe,,Kennedy Highway,,,Australia,,-18.0406467,144.8818671,+61 401 627 315,,https://thebrickoven.com.au/stationstay-details/,yes,yes,,,yes,,,,
Big Bend,,,,,Australia,,-36.5515694,142.0126319,,,,,,,,,,,,
Kyogle Showgrounds,,,,,Australia,,-28.6158864,152.9974157,,,,yes,yes,,yes,yes,,,yes,yes
Long Gully,,,,,Australia,,-37.1485795,145.9871096,,,,,,,,,,,,
Kirbys,,,,,Australia,,-37.1580381,145.9916641,,,,,,,,,,,,
Newtons,,,,,Australia,,-37.1808568,146.0055074,,,,,,,,,,,,
Taylors,,,,,Australia,,-37.142223,145.9863743,,,,,,,,,,,,
Taylors 2,,,,,Australia,,-37.1403188,145.9850073,,,,,,,,,,,,
Cullitons,,,,,Australia,,-37.1441381,145.9870923,,,,,,,,,,,,
Wentworths,,,,,Australia,,-37.1389209,145.9800089,,,,,,,,,,,,
Bee Tree,,,,,Australia,,-37.1236852,145.9558589,,,,,,,,,,,,
North Camp,,,,,Australia,,-37.1243348,145.9522964,,,,,,,,,,,,
Kangaroo Gully,,,,,Australia,,-37.1244008,145.9449921,,,,,,,,,,,,
Crockett Bay,,,,,Australia,,-37.1266027,145.9408773,,,,,,,,,,,,
Harrops Flat,,,,,Australia,,-37.1248192,145.9391099,,,,,,,,,,,,
Parkers Flat,,,,,Australia,,-37.1202612,145.9240869,,,,,,,,,,,,
Owens Hill,,,,,Australia,,-37.115769,145.9151118,,,,,,,,,,,,
Raids Inlet,,,,,Australia,,-37.1133796,145.90963,,,,,,,,,,,,
South Maintongoon,,,,,Australia,,-37.1513531,145.9013622,,,,,,,,,,,,
Charlotte Plains,,,,,Australia,,-28.0812165,146.1775027,,,https://www.charlotteplains.com.au/,yes,yes,,,yes,,,yes,yes
Bulloo River Crossing Free Camping Area,Bulloo Shire Council,,,,Australia,,-27.9975124,143.8330231,,,,,,,,,,,,
Noccundra Hall Camping - Prebook with pub,Nuccundra Pub,,,,Australia,,-27.817517,142.589773,,,,yes,yes,,,yes,,,,
Unknown,,,,,Australia,,-36.1153348,146.2145171,,,,,,,,,,,,
Unknown,,,,,Australia,,-36.1084247,146.2158474,,,,,,,,,,,,
Unknown,,,,,Australia,,-36.0970549,146.2176673,,,,,,,,,,,,
GSWW Mallee Hike-In Camp,Parks Victoria,,,,Australia,,-38.4266178,141.549925,,,,,,,,,,,,
Jackson Rest Area,,,,,Australia,,-27.6324349,142.6823081,,,,yes,no,,,,,,,
Murray River Caravans,,Riverview Drive,,,Australia,,-36.405708,145.369336,+61 406 255 229,,https://www.murrayrivercaravanhire.com.au,,,,,,,,,
Bulloo Developmental Road Rest Area,,,,,Australia,,-27.7737785,143.3543865,,,,no,,,,,,,,
Diamantina Developmental Road Rest Area,,,,,Australia,,-26.6099123,143.9211626,,,,yes,no,,,,,,,
Rock Pool Camping and Recreation Reserve,Murweh Shire Council,,,,Australia,,-26.4189855,146.3508091,,,,no,,,,,,,yes,yes
Mungallala Hotel Caravan Park,Mungallala Hotel,,,,Australia,,-26.4459705,147.5430364,,,,yes,yes,,,yes,,,yes,yes
Bungeworgorai Creek Rest Area,,,,,Australia,,-26.5918416,148.6943815,,,,no,,,,,,,yes,yes
Myall Park Botanical Gardens,,,,,Australia,,-27.2042782,149.65379,,,https://myallparkbotanicgarden.com/,yes,yes,,,,,,,
Chinamans Lagoon Rest Area,,,,,Australia,,-26.6680403,150.1857691,,,,no,,,,,,,,
Jackson Rest Area,,,,,Australia,,-26.6434534,149.6249076,,,,yes,no,,,,,,yes,yes
Nana Glen Equestrian Camping,,,,,Australia,,-30.1298275,153.0185366,,,,,,,,,,,,
Hakuna Matata,,Paperbark Place,,,Australia,,-32.4713364,151.9876131,,,,,,,,,,,,
Possum Park Sporting and Camping Facility,,,,,Australia,,-25.8471911,148.5570563,,,,yes,yes,,,yes,,,yes,yes
Rest Area,,,,,Australia,,-25.3061896,148.6596848,,,,yes,,,,,,,,
Rest Area,,,,,Australia,,-25.1789137,148.5659682,,,,no,,,,,,,,yes
Capella Rest Area,,,,,Australia,,-23.0859671,148.0229014,,,,yes,yes,,,,,,,
Possible Rest Area Camp,,,,,Australia,,-22.802543,147.6468502,,,,,,,,,,,,
Mingela Rest Area,,,,,Australia,,-19.878319,146.6218311,,,,yes,no,,,,,,,
Basalt River,,,,,Australia,,-19.6308712,145.7731,,,,no,,,,,,,,
Fletcher Creek Camping Reserve SW,Charters Towers Regional Council,,,,Australia,,-19.816027,146.0538052,,,,yes,,,,,,,,
Fletcher Creek Camping Reserve N,Charters Towers Regional Council,,,,Australia,,-19.8138304,146.0552751,,,,yes,,,,,,,,
Big Bend Campground,,,,,Australia,,-19.8618987,146.1366643,,,,,,,,,,,,
Dairy park,,Hilton Lane,,,Australia,,-33.6875856,149.1415509,,,,,,,,,,,,
Rest Area,,,,,Australia,,-21.8959187,145.1901355,,,,yes,no,,,,,,,
Nat Buchanan Bridge Rest Area,Barcaldine Regional Council,,,,Australia,,-22.4546201,145.0092405,,,,no,,,,,,,,
Unknown,,,,,Australia,,-22.8501491,145.0798502,,,,no,,,,,,,,
cottage creek,,,,,Australia,,-35.9702065,148.0994975,,,,,,,,,,,,
Unknown,,,,,Australia,,-23.5908832,145.2752318,,,,yes,,,,,,,,
Red Lizard Camping Ground,,,,,Australia,,-26.4625346,146.2317431,,,https://redlizardcamping.com/,yes,yes,,,yes,,,yes,yes
The Beach,,,,,Australia,,-27.2497443,145.9685948,,,,no,,,,,,,,
Dingo Waterhole,,,,,Australia,,-15.027687,144.3333438,,,,,,,,,,,,
Mick Fienn Waterhole,,,,,Australia,,-14.9667776,144.3142772,,,,,,,,,,,,
Lime Pocket Camp Site 4,,,,,Australia,,-26.9573931,153.084227,,,,,,,,,,,,
Lime Pocket Camp Site 3,,,,,Australia,,-26.9566896,153.0847668,,,,,,,,,,,,
Lime Pocket Camp Site 2,,,,,Australia,,-26.9523042,153.0869508,,,,,,,,,,,yes,
Lime Pocket Camp Site 1,,,,,Australia,,-26.9521249,153.0870379,,,,,,,,,,,yes,
Mission Point Camp Sites 1-8,QLD Government,,,,Australia,,-26.9758932,153.0779277,,,https://parks.des.qld.gov.au/parks/bribie-island/camping/mission-point,,,,,,,,yes,
Kyabra Creek Rest Area,,,,,Australia,,-26.0968138,143.4437185,,,,no,,,,,,,yes,yes
Cooper Creek Beach Campground,,,,,Australia,,-25.3714573,142.7440909,,,,no,,,,,,,,
Black Sallee,,,,,Australia,,-37.1006804,147.3057842,,,,,,,,,,,,
Apex Park Riverside Buish Camp - Overflow Only,Longview Regional Council,,,,Australia,,-23.4102553,144.230064,,,,,,,,,,,,
Barcaldine East Rest Area,Barcaldine Regional Council,,,,Australia,,-23.5522622,145.3068777,,,,yes,no,,,,,,,yes
Alice River Rest Area,,,,,Australia,,-23.565518,145.8002329,,,,yes,no,,,,,,,
Mission Point Camp Sites 9-12,QLD Gov,,,,Australia,,-26.9768658,153.0774429,,,https://parks.des.qld.gov.au/parks/bribie-island/camping/mission-point,,,,,,,,yes,
Belyando River Rest Area,,,,,Australia,,-23.6610529,146.9298041,,,,yes,no,,,,,,,
Pine Hill Creek Rest Area,,,,,Australia,,-23.6703322,147.0910036,,,,yes,no,,,,,,,yes
Drummond Range Lookout Rest Area,Barcaldine Regional Council,,,,Australia,,-23.656397,147.2037756,,,,no,,,,,,,,yes
Free Camping,,,,,Australia,,-35.0234885,150.5614761,,,,,,,,,,,,
Forestvale Rest Area,,,,,Australia,,-25.925867,147.8702247,,,,no,,,,,,,,
Kalymna Falls Camping Area,Parks Victoria,,,,Australia,,-37.3238311,142.6210468,,,,,,,,,,,yes,no
The Gums Sports Club Camping,,,,,Australia,,-27.3401672,150.1945061,+61 7 4665 9261,,,yes,yes,,,,,,,
The Gums Store Rest Stop,,,,,Australia,,-27.343184,150.1885361,+61 7 4665 9176,,,yes,,,,,,,,
Flynn's Beach Caravan Park,,,,,Australia,,-31.4458659,152.9256816,,,,,,,,,,,,
Reception - Tallebudgera Creek Tourist Park,,Gold Coast Highway,,,Australia,4221,-28.1002722,153.4592305,+61 7 5667 2700,,https://goldcoasttouristparks.com.au/,,,,,,,,,
Tareelaroi Weir,,,,,Australia,,-29.4485178,150.0375169,,,,no,,,,,,,,
Tareelaroi Weir Flats,,,,,Australia,,-29.4469223,150.0404498,,,,yes,,,,,,,,
Fiddlers Green,,,,,Australia,,-37.6163819,146.3846162,,,,,,,,,,,,
Unknown,,,,,Australia,,-37.4393252,146.3924228,,,,,,,,,,,,
Rumpff Saddle,,,,,Australia,,-37.4326609,146.4005752,,,,,,,,,,,,
Bohena Creek Rest Area,,,,,Australia,,-30.4371359,149.6778401,,,,yes,no,,,,,,,
Leinster Flat Camping Ground,,,,,Australia,,-36.9293632,146.9245471,,,,,,,,,,,,
Unknown,,,,,Australia,,-36.9085618,146.8911126,,,,,,,,,,,,
Good Hope Flat Camping Ground,,,,,Australia,,-36.9335613,146.9257375,,,,,,,,,,,,
Unknown,,,,,Australia,,-36.9553189,146.9309845,,,,,,,,,,,,
The Bend Camping Ground,,,,,Australia,,-36.9634255,146.9328616,,,,,,,,,,,,
Low Saddle,,,,,Australia,,-37.3330161,146.4421017,,,,,,,,,,,,
Chesters Yard,,,,,Australia,,-37.2368407,146.5964399,,,,,,,,,,,,no
Pilliga Rest Area,,,,,Australia,,-30.7226485,149.5255111,,,,no,,,,,,,,
Yamminba Rest Area,,,,,Australia,,-30.8545511,149.4571635,,,,yes,no,,,,,,,
Pilliga Pottery - Barkala Farmstay and Campsite,,,,,Australia,,-31.0443162,149.3180052,,,,,,,,,,,,
David Gillon Park Rest Area,,,,,Australia,,-31.4242204,148.5123646,,,,no,,,,,,,,
Bunyip Hole Campground,,,,,Australia,,-34.5593101,145.988753,,,,,,,,,,,,
Boolba Tennis Courts,,,,,Australia,,-27.9614033,148.1071611,,,,no,,,,,,,,
Zebra Stone Litchfield,Zebra Rock Mine,Litchfield Park Road,,,Australia,,-13.0212912,130.9380497,,,,,,,,no,,,,
Unknown,,,,,Australia,,-37.7915925,146.2402276,,,,,,,,,,,,
Unknown,,,,,Australia,,-37.802371,146.2602423,,,,,,,,,,,,
Pump Hole,,,,,Australia,,-22.5827613,144.5655008,,,,no,,,,,,,,
Kyabra Creek,Quilpie Shire Council,,,,Australia,,-26.3144712,143.1662892,,,,no,,,,,,,,
Limmen Bight Campground,,,,,Australia,,-15.4765157,135.406234,,,,yes,,,,,,,yes,yes
Didi Baba Campground,,,,,Australia,,-14.7744805,134.8367701,,,,,,,,,,,,
Mountain Creek Campground,,,,,Australia,,-14.7743845,134.806771,,,,,,,,,,,,
Buckaroola Quarry,,,,,Australia,,-27.1313167,142.788469,,,,no,,,,,,,,
Buckaroola,Tyre Marker,,,,Australia,,-27.1196047,142.8177482,,,,no,,,,,,,,
Bulloo River Crossing Free Camping Area (North),Bulloo Shire Council,,,,Australia,,-27.9957245,143.8353313,,,,,,,,,,,,
Nebine Creek Rest Area,,,,,Australia,,-27.9951724,146.8147218,,,,yes,no,,,,,,yes,yes
Thallon Recreation Ground - Powered Paid,Balonne Shire Council,,,,Australia,,-28.63242,148.8659546,,,,yes,yes,,,yes,yes,,yes,yes
Unknown,,,,,Australia,,-23.4210807,122.5116546,,,,,,,,,,,,
Unknown,,,,,Australia,,-23.4973667,122.5489728,,,,,,,,,,,,
Unknown,,,,,Australia,,-23.5337513,122.5940365,,,,,,,,,,,,
Rosenheath Station Historic Farmstay,,,,,Australia,,-29.0828246,151.4923698,,,https://www.roseneathstation.com.au/,yes,,,,,,,yes,yes
Wallangra Community Sports Ground Rest Area,Wallangra Recreation Reserve Trust,,,,Australia,,-29.258457,150.8989444,,,,yes,no,,,,,,yes,yes
Longpoint East,,,,,Australia,,-37.0140781,142.4680987,,,,,,,,,,,,
The Gums,,,,,Australia,,-26.5419661,152.2988714,,,,,,,,,,,,
Loop Campsite,,,,,Australia,,-35.9746287,145.9521943,,,,no,,,,,,,,
Blue Hole Campsite,,,,,Australia,,-35.979289,145.9522292,,,,no,,,,,,,,
Victoria Campsite,,,,,Australia,,-35.9604965,145.9494129,,,,no,,,,,,,,
Unknown,,,,,Australia,,-35.9904512,145.9537876,,,,no,,,,,,,,
River Campsite,,,,,Australia,,-35.9694502,145.9476738,,,,no,,,,,,,,
Paddys Beach Campsite,,,,,Australia,,-35.9512517,145.9134552,,,,no,,,,,,,,
One Tree Beach Campsite,,,,,Australia,,-35.959398,145.8595347,,,,no,,,,,,,,
Lagoon Campsite,,,,,Australia,,-35.9544565,145.8698773,,,,no,,,,,,,,
Sandy Beach Campsite,,,,,Australia,,-35.9564387,145.8808717,,,,no,,,,,,,,
Free Camping Elliston,,,,,Australia,,-33.622516,134.8324348,,,,,,,,,,,,
Ti Tree Creek Rest Area,,,,,Australia,,-29.6135346,150.5435797,,,,no,,,,,,,,
Boora Crossing - Gwydir River Camps,,,,,Australia,,-29.9130503,150.6369845,,,,no,,,,,,,,
Campground No 2,,,,,Australia,,-34.1245502,142.0286366,,,,,,,,,,,,
Tourist Park,,,,,Australia,,-20.4075153,148.6710224,,,,,,,,,,,,
Tambo Mill Motel and Caravan Park,,Arthur Street,,QLD,Australia,4478,-24.8840148,146.2524295,+61 7 4654 6100,info@tambomillmotelandcaravanpark.com.au,https://www.tambomillmotelandcaravanpark.com.au/,yes,,,,,yes,,,
Unknown,,,,,Australia,,-21.9644923,142.6549768,,,,,,,,,,,,
Unknown,,,,,Australia,,-27.9906677,153.2387634,,,,,,,,,,,,
Unknown,,,,,Australia,,-36.0505953,146.37023,,,,,,,,,,,,
Foysayth,,,,,Australia,,-18.5860003,143.6028462,,,,yes,,,,,yes,,,
Einasleigh River,,,,,Australia,,-18.1865297,144.0067522,,,,,,,,,,,,
Smitt Rock Campsite,,,,,Australia,,-14.3153364,132.4848265,,,,,,,,,,,,
Dunlop Swamp Campsite,,,,,Australia,,-14.3292509,132.4734233,,,,,,,,,,,,
Cullendore High Country,High country campground,Cullendore Creek Road,,NSW,Australia,2372,-28.4920602,152.1223755,,,,,,,,,,,,
Upper Noosa River Campsite 2,Queensland National Parks,,,,Australia,,-26.1680841,153.041467,,,,,,,,,,,yes,no
Wilson Bight Campsite,Parks and Wildlife,,,,Australia,,-43.5403957,146.0803746,,,,no,no,,,,,,yes,no
New Harbour West Campsite,Parks and Wildlife,,,,Australia,,-43.5012341,146.1474182,,,,,no,,,,,,yes,no
New Harbour East Campsite,Parks and Wildlife,,,,Australia,,-43.5023673,146.15804,,,,no,no,,,,,,yes,no
Hidden Bay Campsite,Parks and Wildlife,,,,Australia,,-43.5187961,146.1300828,,,,no,no,,,,,,yes,no
Ketchem Bay Campsite,Parks and Wildlife,,,,Australia,,-43.5258048,146.1091081,,,,no,no,,,,,,yes,no
Wreck Rock Camping Area,,,,,Australia,,-24.3159904,151.9616394,,,https://parks.des.qld.gov.au/parks/deepwater/camping/wreck-rock,,,,,,,,,
Free Camping,,,,,Australia,,-14.0706887,131.9745885,,,,,,,,,,,,
Middle Rock Camping Area,"Unallocated sites, book online",,,,Australia,,-24.2901907,151.9527852,,,https://parks.des.qld.gov.au/parks/deepwater/camping/middle-rock,,,,,,,,,
Eureka Creek,,,,,Australia,,-17.186659,145.0413712,,,,no,,,,,,,,
Robbie Robins Reserve,equestrian reserve / caravan park,Wongabilla Street,,,Australia,,-12.4420352,130.941485,,,,,,,,,,,,
Unknown,,,,,Australia,,-19.7922268,144.2550166,,,,,,,,,,,,
Poddys Creek Rest Area,,,,,Australia,,-22.214191,142.2308353,,,,yes,no,,,,,,,
The Thirsty Camel,,,,,Australia,,-21.3563185,139.8640489,,,,yes,yes,,,yes,,,,
Eddie Miller Rest Area,,,,,Australia,,-23.4161733,139.6691528,,,,no,,,,,,,,
Mount Britton Camping,,,,,Australia,,-21.403546,148.5456377,,,,yes,no,,,no,,,,
Unknown,,,,,Australia,,-30.1803972,139.2770183,,,,,,,,,,,,
Numninbah Valley Scouts Camp,Scouting Queensland,,,,Australia,,-28.1045271,153.252151,,,,,,,,,,,,
Unknown,,,,,Australia,,-26.5501504,152.2772331,,,,,,,,,,,,
Oma Waterhole,Longreach Regional Council,,,,Australia,,-24.2826281,144.3221938,,,,yes,,,,,,,,
Yuranigh Ponds,,,,,Australia,,-24.2988579,144.4785092,,,,no,,,,,,,,
Raymond Creek Falls,,,,,Australia,,-37.4840278,148.3087456,,,,,,,,,,,,
Illinbah Bush Camp,,,,,Australia,,-28.1592282,153.1700241,,,,,,,,,,,,
Unknown,,,,,Australia,,-23.8033397,121.2289531,,,,,,,,,,,,
Unknown,,,,,Australia,,-24.0234581,121.6781555,,,,,,,,,,,,
Unknown,,,,,Australia,,-24.1024144,121.7067691,,,,,,,,,,,,
Unknown,,,,,Australia,,-24.107305,121.6947584,,,,,,,,,,,,
Unknown,,,,,Australia,,-24.2371202,121.3486776,,,,,,,,,,,,
Unknown,,,,,Australia,,-24.2158627,121.3346397,,,,,,,,,,,,
Unknown,,,,,Australia,,-24.227902,121.3244598,,,,,,,,,,,,
Unknown,,,,,Australia,,-23.771418,120.9711796,,,,,,,,,,,,
Unknown,,,,,Australia,,-23.8055348,120.8887201,,,,,,,,,,,,
Unknown,,,,,Australia,,-23.8067976,120.8898279,,,,,,,,,,,,
Unknown,,,,,Australia,,-23.9254119,120.7193705,,,,,,,,,,,,
Unknown,,,,,Australia,,-23.7872836,121.4126686,,,,,,,,,,,,
Unknown,,,,,Australia,,-23.7947308,121.4240156,,,,,,,,,,,,
Unknown,National Parks & Wildlife Service (NPWS),,,,Australia,,-34.6196358,146.2142092,,,,,,,,,,,,
Unknown,,,,,Australia,,-37.0161275,147.0744062,,,,,,,,,,,,
Unknown,,,,,Australia,,-37.0211035,147.0705746,,,,,,,,,,,,
Unknown,,,,,Australia,,-37.0271432,147.0500109,,,,,,,,,,,,
Clear Creek Campground,,,,,Australia,,-36.8911532,146.8870943,,,,,,,,,,,,
Unknown,,,,,Australia,,-15.3000271,145.0047451,,,,,,,,,,,,
Deepdene Campsite,,,,,Australia,,-34.2709772,115.0513062,,,,,,,,,,,,
Cec Barrows Group Site,,,,,Australia,,-31.6102692,116.2439041,,,,,,,,,,,,
Riverside Caravan Park,,,,,Australia,,-36.4570213,142.025025,,,,,,,,,,,,
Candole Creek,,,,,Australia,,-29.6796831,153.277809,,,,,,,,,,,,
Main Beach camping area,,,,,Australia,,-27.5960013,153.475002,,,,,,,,,,,,
Point Rd,,,,,Australia,,-34.0925511,115.017138,,,,,,,,,,,,
Camp site WBS 7,,,,,Australia,,-27.1891322,153.3684071,,,,,,,,,,,,
Foxbar Falls,Harslett Farm,Goldfields Road,,,Australia,,-28.5822032,151.769693,,,,,,,,,,,,
Cheela Plains Station Stay,,,,,Australia,,-22.9662568,116.9833472,,,https://www.cheelaplains.com.au/,yes,yes,,,yes,,,yes,yes
