post_title,post_content,post_address,post_city,post_region,post_country,post_zip,post_latitude,post_longitude,post_tel,post_email,post_website,toilets,shower,bbq,drinking_water,power_supply,sanitary_dump_station,dogs,tents,caravans
Emu Creek Retreat,"Hello, and welcome to Emu Creek Retreat Camping and 4wd Park.  Emu Creek Retreat is a privately owned property, and a family run four wheel drive (4wd), camping and recreation park. Bookings are essential, and we highly recommend booking minimum 2 weeks i",Emu Creek Road,,NSW,Australia,2469,-28.826902,152.471633,+61 412 222 778,info@emucreek.com,https://emucreek.com/,,,,,,,,,
Walkerville Camping Reserve,,Loop Road,,,Australia,,-38.836946,146.0025659,+61 3 5663 2224,,http://www.walkervillecamping.com/,,,,,,,,,
NRMA Port Campbell Holiday Park,,Morris Street,,,Australia,,-38.6182593,142.9949315,,,https://www.nrmaparksandresorts.com.au/port-campbell/,yes,yes,,yes,,yes,,yes,yes
Unknown,,,,,Australia,,-35.5236778,138.1940495,,,,,,,,,,,,
Unknown,,,,,Australia,,-35.5132057,138.2186247,,,,,,,,,,,,
Ashmore Palms Holiday Village,,,,,Australia,,-27.9838682,153.3877955,,,https://www.ashmorepalmsgoldcoast.com.au/,,,,,,,,,
Southport Tourist Park,,,,,Australia,,-27.9543166,153.4075429,,,https://www.southporttouristpark.com.au/,,,,,,,,,
Blackheath Glen Tourist Park,,Prince Edward Street,,,Australia,,-33.634685,150.2922107,,,https://www.bmtp.com.au/blackheath-glen.html,yes,yes,,,yes,,,yes,yes
Great Lake Caravan Park,,,,,Australia,,-41.9805968,146.6763077,,,,,,,,,,,,
Oakwood Caravan Park,,Old Gin Gin Road,,,Australia,,-24.8523431,152.2923399,,,,,,,,no,,,,
Bivouac Bay,,,,,Australia,,-43.1190251,147.974017,,,,,,,,,,,yes,no
Bright Pine Valley Tourist Park,,,,,Australia,,-36.7309489,146.9713109,,,,,,,,yes,,,yes,
Bethune Park,,,,,Australia,,-42.5359315,146.7303888,,,,,,,,,,,,
Lighthouse Caravan Park,,,,,Australia,,-24.763242,152.4084874,,,,,,,,,,,,
Oaks Beach Caravan Park,,,,,Australia,,-24.7703408,152.4131747,,,,,,,,,,,,
Elliott Heads Holiday Park,,Lihs Street,,QLD,Australia,4670,-24.9202102,152.4911404,,,https://www.discoverbundaberg.com.au/elliott-heads-holiday-park,,,,,yes,,,,
Scone Caravan Park,,,,,Australia,,-32.0425707,150.866416,,,,yes,yes,,,,,,,
Absolute Waterfront Tourist Park,,,,,Australia,,-24.8339735,152.4720155,,,,,,,,,,,,
Unknown,,,,,Australia,,-25.1113477,152.5662752,,,,,,,,,,,,
Korumburra Tourist Park,,,,,Australia,,-38.4266925,145.8308326,,,korumburratouristpark.com.au,yes,,,yes,yes,no,,,
Midtown Caravan Park,,,,,Australia,,-24.8786923,152.3278993,,,,,,,,,,,,
Cane Village Holiday Park,,,,,Australia,,-24.8905376,152.3155639,,,,,,,,,,,,
Unknown,,,,,Australia,,-28.8857027,121.3282646,,,,,,,,,,,,
Adels Grove,,,,,Australia,,-18.6902749,138.5300932,,,https://www.adelsgrove.com.au/,,,,,,,,,
Kooljaman at Cape Leveque,,,,,Australia,,-16.3947949,122.928837,+61 8 9192 4970,,https://www.kooljaman.com.au/,,,,,,,,,
Middle Lagoon,,,,,Australia,,-16.7734454,122.5759636,,,,,,,,,,,,
Unknown,,,,,Australia,,-24.8993699,152.456061,,,,,,,,,,,,
Moore Park Beach Holiday Park,,,,,Australia,,-24.7164074,152.2788172,,,,,,,,,,,,
Cory's Fall,,,,,Australia,,-32.9669535,151.4197433,,,,,,,,,,,yes,yes
The Basin Camping Area,,,,,Australia,,-33.1041951,151.2312377,,,,yes,no,yes,,,,,yes,
Belongil Fields Caravan Park,,,,,Australia,,-28.640164,153.5915749,,,,,,,,,,,,
Discovery Parks Byron Bay,,Ewingsdale Road,,NSW,Australia,2481,-28.6354886,153.5944541,+61 2 6687 3700,byron@discoveryparks.com.au,https://discoveryparks.com.au,,,,,,,,,
Cub Camping Area,,,,,Australia,,-37.4155334,144.6909496,,,,,,,,,,,,
Cub Camping Area,,,,,Australia,,-37.4155553,144.6910789,,,,,,,,,,,,
Cub Camping Area,,,,,Australia,,-37.4154456,144.6912731,,,,,,,,,,,,
Leeton Caravan Park,,Yanco Avenue,,NSW,Australia,2705,-34.5665095,146.4123325,,,,,,,,,,,,
An Oasis Holiday Park,,,,,Australia,,-34.5658382,146.4240751,,,,,,,,,,,,
Macquarie Caravan Park,,,,,Australia,,-31.6945107,147.8397377,,,,,,,,,,,,
Nyngan Leisure and Van Park,,,,,Australia,,-31.5659814,147.2084823,,,,,,,,,,,,
Nyngan Riverside Tourist Park,,,,,Australia,,-31.5581105,147.181832,,,,,,,,,,,,
Wanderers Crossing River Retreat,,,,,Australia,,-34.1106228,141.9184654,,,,yes,yes,,,,yes,,yes,yes
Griffith Tourist Caravan Park,,,,,Australia,,-34.2969962,146.0463156,,,https://www.griffithtouristcaravanpark.com.au/,,,,,yes,,,,
Dunphys Campground,NSW National Parks and Wildlife Service,,,,Australia,,-33.7896421,150.2299213,,,https://www.nationalparks.nsw.gov.au/camping-and-accommodation/campgrounds/dunphys-campground,yes,no,,,,,,yes,no
Greenhills Caravan Park,,,,,Australia,,-28.3441017,153.4019574,,,,,,,,yes,,,,
Ace Caravan Park,,,,,Australia,,-33.9230134,147.197943,,,https://www.acecaravanpark.com.au/,,,,,,,,,
West Wyalong Caravan Park,,,,,Australia,,-33.9245779,147.2107575,,,https://westwyalongcaravanpark.com.au,,,,,,,,,
Double D Caravan Park,,Bogan Street,,NSW,Australia,2869,-32.7293174,148.1853238,,,,,,,,,,,,
Peak Hill Caravan Park,,Ween Street,,NSW,Australia,2869,-32.7207308,148.1907425,,,https://www.peakhillcaravanpark.com.au/,,,,,,,,,
Narrabri Big Sky Caravan Park,G'day Parks,,,,Australia,,-30.3306086,149.7845577,,,,,,,,,,,,
El Paso Caravan Park,,,,,Australia,,-38.1212519,145.8420851,,,,,,,,,,,,
Gwydir Motel & Caravan Park,,Amaroo Drive,,NSW,Australia,2400,-29.4860464,149.8488903,,,https://www.gwydircarapark.com.au,yes,yes,,yes,yes,yes,,yes,yes
Fossickers Rest Caravan Park,,Lake Inverell Drive,,NSW,Australia,2360,-29.7859353,151.1373919,+61 2 6722 2261,,https://www.fossickersrest.com.au/,,,,,yes,yes,,yes,yes
Fossicker Caravan Park,,,,,Australia,,-29.7442158,151.7362657,,,,,,,,,,,,
Blue Sapphire Caravan Park,,,,,Australia,,-29.7273302,151.7387933,,,,,,,,,,,,
The Poplar Caravan Park,,,,,Australia,,-29.7524313,151.7367636,+61 2 6732 1514,,,,,,,,,,,
Discovery Parks - Casino,,,,,Australia,,-28.862141,153.0623291,,,https://www.discoveryholidayparks.com.au/caravan-parks/new-south-wales/north-coast/casino/,,,,,yes,yes,,,
Lismore Tourist Caravan Park,,,,,Australia,,-28.8079131,153.2828638,,,,,,,,,,,,
Henry White Oval,,,,,Australia,,-31.5448847,115.688472,,,,,,,,,,,yes,yes
Dunbogan Caravan Park,,,,,Australia,,-31.6473431,152.816049,,,,,,,,,,,,
Big 4 Park Beach Holiday Park,,Ocean Parade,,NSW,Australia,2450,-30.2936862,153.135847,+61 2 6648 4888,,https://www.big4.com.au/caravan-parks/nsw/north-coast/park-beach-holiday-park,,,,,yes,yes,,yes,yes
Shady Camp Camp Site,,,,,Australia,,-12.4834592,131.7259567,,,,,,,,,,,,
Skenes Creek Beachfront Park,,,,,Australia,,-38.7246741,143.7132454,,,,,,,,,,,yes,yes
Bellhaven Caravan Park,,,,,Australia,,-32.7805056,151.7363916,,,,,,,,,,,,
Pacific Gardens Van Village,,,,,Australia,,-32.7920276,151.7225794,,,,,,,,,,,,
Windy Harbour Camping Ground,,,,,Australia,,-34.8364074,116.0261182,,,,,,,,,,,,
Quirindi Caravan Park,,,,,Australia,,-31.5108092,150.6835397,,,,,,,,,,,,
Mount Crozier Camping Area,Parks Victoria,,,,Australia,,-34.909705,141.7054795,,,,,,,,,,,,
Rocket Lake Camping Area,Parks Victoria,,,,Australia,,-34.6381458,141.8316071,,,,,,,,,,,,
Balranald Caravan Park,,,,,Australia,,-34.6441553,143.5652189,,,http://www.balranaldcaravanpark.com.au/,yes,yes,,,yes,,,yes,yes
Granites Motel Caravan Park,,,,,Australia,,-29.4339904,142.0090108,,,,,,,,,,,,
Broken Hill Tourist Park,,,,,Australia,,-31.9615225,141.4365571,,,https://www.brokenhilltouristpark.com.au/,,,,,,,,,
Bimbi Park,"Camping, Caravan, Cabins, Self Contained Cabins, Backpackers, family activities, bush setting, camping under koalas",Manna Gum Drive,,VIC,Australia,3233,-38.8348457,143.5138221,+61 3 5237 9246,admin@bimbipark.com.au,https://www.bimbipark.com.au/,,,,,yes,yes,,,
Gulargambone Caravan Park,,,,,Australia,,-31.3311274,148.4696507,,,,,,,,yes,yes,,,
Opal Holiday Park,,Pandora Street,,NSW,Australia,2834,-29.4258033,147.9956639,,,,,,,,yes,yes,,,
Lightning Ridge Caravan Park,,,,,Australia,,-29.4286793,147.9820974,,,,,,,,,,,,
Lightning Ridge Hotel Motel Caravan Park,,,,,Australia,,-29.428714,147.9727901,,,,,,,,,,,,
Crocodile Caravan & Camping Park,,,,,Australia,,-29.4288737,147.9748654,,,https://crocodilecaravanpark.com.au/,,,,,,,,,
Alice Atkinson Sandstone Caravan Park,,,,,Australia,,-27.9901769,119.2970758,,,,,,,,,,,,
River View Caravan Park,,,,,Australia,,-33.0936011,147.1452651,,,,,,,,,,,,
River View Caravan Park,,,,,Australia,,-33.0947059,147.1452978,,,,,,,,,,,,
Glenmack Caravan Park,,Moss Vale Road,,,Australia,2577,-34.7370643,150.5380865,+61 2 4465 1372,,https://glenmack.com.au/,,,,,,,,,
Bungendore Showground,,,,,Australia,,-35.2433009,149.410611,,,https://www.bungendoreshowground.com.au/,yes,yes,,,yes,,,yes,yes
Gambells Rest Campground,NSW Parks and Wildlife Service,,,,Australia,,-34.6685042,150.2963252,,,https://www.nationalparks.nsw.gov.au/camping-and-accommodation/campgrounds/Gambells-Rest-campground,yes,yes,yes,,,,,yes,yes
NRMA Dubbo City Holiday Park,,Alfred Street,,,Australia,2830,-32.2456487,148.5963654,,,www.dubbocityholidaypark.com.au,,,,,yes,yes,,,
Western Plains Tourist Park,,,,,Australia,,-32.2513823,148.5987198,,,,,,,,,,,,
Brisbane Gateway Resort,,School Road,,QLD,Australia,4123,-27.5909899,153.1110367,+61 7 3341 6333,,https://brisbanegateway.com.au/,,,,,,,,,
NRMA Merimbula Beach Holiday Resort,NRMA,,,,Australia,,-36.8875048,149.9300975,,,https://www.big4.com.au/caravan-parks/nsw/south-coast/nrma-merimbula-beach-holiday-resort,,,,,,,,,
Unknown,,,,,Australia,,-36.0820846,150.1311407,,,https://www.beachcomberholidaypark.com.au/,,,,,,,,,
Moruya Holiday Park,,,,,Australia,,-35.9045297,150.0802249,,,https://www.moruyaholidaypark.com.au/,yes,yes,,,,,,,yes
Lake Hamilton Caravan Park,,,,,Australia,,-37.7431179,142.0334913,,,,,,,,,,,,
Sharp Park Camping Ground,,Beechmont Road,,,Australia,,-28.049708,153.1887272,+61 409 550 745,,,yes,no,,yes,,,,yes,
Blue Gum Residential Park,,Brunt Road,,,Australia,,-38.0581649,145.3881202,+61 3 9769 8201,,http://bluegumresidentialpark.com/,,,,,,,,,
BIG4 Batemans Bay Beach Resort,Big 4,,,,Australia,,-35.7269812,150.1965819,,,https://www.beachresort.com.au/,,,,,,,,,
BIG4 Batemans Bay At East's Riverside Holiday Park,,,,,Australia,,-35.7032464,150.1822727,,,https://www.eastsbatemansbay.com.au/,,,,,,,,,
Discovery Parks - Clare,,Horrocks Highway,,,Australia,,-33.8650796,138.6210933,,,https://www.discoveryparks.com.au/caravan-parks/south-australia/clare-valley-clare,,,,,,,,,
Berry Showground,,,,,Australia,,-34.7795276,150.6947555,,,,,,,,,,,,
San Remo Beachfront Caravan Park,,Davis Point Road,,,Australia,,-38.5249361,145.3669825,+61 3 5619 7190,,https://srbfcp.com.au,,,,,yes,no,,,
Hebron Christadelphian Bible Camp (Private),Christadelphians,Balmoral Road,,,Australia,5351,-34.6291542,138.8378406,,,,,,,,,,,,
Rosebery Caravan Park,,,,,Australia,,-41.7770746,145.5347592,+61 3 6473 1366,,,,,,,,,,,
Sugar Bowl Tourist Park & Backpackers,,,,,Australia,,-25.2356587,152.2644977,+61 7 4126 1521,,http://www.sugarbowlchilders.com/,,,,,,,,,
Unknown,,,,,Australia,,-25.2356587,152.2644977,,,,,,,,,,,,
Miara Holiday Park,,,,,Australia,,-24.6678172,152.2004495,,,,,,,,,,,,
Copley Caravan Park,,,,,Australia,,-30.5560318,138.4227537,,,http://www.copleycaravan.com.au,,,,,,,,,
Ross Caravan Park,,,,,Australia,,-42.0303009,147.4909172,,,https://rossmotel.com.au/,,,,,,,,,
Oasis Caravan Park,,,,,Australia,,-33.2524565,151.4931941,,,,,,,,,,,,
Boomi Co-Op Caravan Park,,Bishop Street,,NSW,Australia,2405,-28.7250762,149.5785424,+61 2 6753 5150,boomico-op@outlook.com,,yes,yes,,,yes,yes,,yes,yes
Unknown,O'Reilly's,,,,Australia,,-28.229506,153.1323706,,,https://oreillys.com.au/oreillys-campground/,,,,,,,,,
Unknown,Cataract Scout Camp,,,,Australia,,-34.218925,150.7992183,,,,,,,,,,,,
Tatachilla Lutheran Camp,,,,,Australia,,-35.2216689,138.5193732,,,,,,,,,,,,
Gillard's Campground,,,,,Australia,,-36.660068,150.001418,,,https://www.nationalparks.nsw.gov.au/,,,,,,,,,
Middle Beach,,,,,Australia,,-36.6439669,150.0129918,,,,,,,,,,,,
Unknown,,,,,Australia,,-37.7741355,148.1402461,,,,,,,,,,,,
Childers Central Caravan Park,,,,,Australia,,-25.2384898,152.2883056,,,,,,,,,,,,
Brou Lake Campground,NSW National Parks and Wildlife Service,,,,Australia,,-36.1294605,150.1240176,,,,yes,no,,,,,,yes,yes
Phoenix Park,,Geelong-Ballan Road,,,Australia,,-37.591537,144.1978999,,,https://www.phoenixparkballan.com.au/,yes,,,yes,yes,no,,,
Ningaloo Coral Bay - Bayview,,Robinson Street,,,Australia,6701,-23.1428203,113.7729818,+61 8 9385 6655,,https://www.ningaloocoralbay.com/,,,,,yes,,,,
Bremer Bay Beaches Resort Tourist Park,,Wellstead Road,,WA,Australia,6338,-34.4264271,119.3743381,+61 8 9837 4290,frontoffice@bremerbaybeaches.com.au,https://bremerbaybeaches.com.au/,,,,,yes,yes,,,
Foreshore Caravan Park,,,,,Australia,,-30.6501061,152.9979954,,,,yes,,,yes,yes,yes,,,
Turpentine Camping Area,,,,,Australia,,-33.0614105,151.3371177,,,,yes,no,yes,,,,,,
Goughs Bay Caravan Park,,,,,Australia,,-37.1871724,146.0664129,,,,,,,,,,,,
S-Bend Caravan Park,,Company Road,,,Australia,6528,-28.9849713,114.7729994,+61 8 9926 1072,,https://www.facebook.com/sbendcaravanpark/,,,,,,,,,
Horrocks Beach Caravan Park,Top Tourist Parks,North Court,,,Australia,6535,-28.380363,114.4309292,+61 8 9934 3039,info@horrocksbeachcaravanpark.com.au,http://www.horrocksbeachcaravanpark.com.au/,,,,,yes,,,,
Unknown,,,,,Australia,,-31.9683174,152.5928775,,,,,,,,,,,,
Port Gregory Caravan Park,,Sanford Street,,,Australia,6535,-28.1882869,114.2521551,+61 8 9935 1052,admin@portgregorycaravanpark.com.au,http://simonhyam.wix.com/port-gregory-caravan-park,,,,,yes,,,,
Murchison River Caravan Park,Top Tourists Park,Grey Street,,,Australia,6536,-27.7081504,114.1683331,+61 8 9937 1005,mcp@wn.com.au,https://www.murcp.com/,yes,yes,,yes,yes,yes,,yes,yes
Billabong Homestead Hotel Motel,Billabong Homestead Hotel Motel,,,,Australia,,-26.817711,114.6146782,+61 8 9942 5980,,http://www.billabonghotelmotel.com.au/,,,,,yes,,,,
Pink Lake Tourist Park,,Pink Lake Road,,,Australia,6450,-33.8573687,121.8697304,+61 8 9071 2424,pinklake@westnet.com.au,http://www.pinklakepark.com.au/,,,,,yes,,,,
Cape Le Grand Campground (Cape Le Grand Beach),,,,,Australia,,-33.9779306,122.1197504,,,https://parks.dpaw.wa.gov.au/site/cape-le-grand-campground,,,,,,,,,
Blue Dolphin Caravan Park and Holiday Village,,Hamelin Road,,,Australia,6537,-25.9286245,113.5377502,+61 8 9948 1385,enquiries@bluedolphin.net.au,,,,,,yes,,,,
Shark Bay Caravan Park,,Spaven Way,,,Australia,6537,-25.9249979,113.5380757,+61 8 9948 1387,trish.roch@bigpond.com,http://www.sbvan.com/,yes,,,yes,yes,,,,
Nanga Bay Resort,,,,,Australia,,-26.255035,113.805879,+61 8 9948 3992,,https://www.nangabayresort.com.au/,,,,,yes,,,,
Valla Beach Resort,,,,,Australia,,-30.6042517,153.0050864,,,,,,,,,,,,
Tasman Holiday Parks - Nambucca Heads,Big 4,Swimming Creek Road,,NSW,Australia,2448,-30.6289298,153.0118174,+61 2 6568 6120,nambucca@tasmanholidayparks.com,https://tasmanholidayparks.com/,,,,,,yes,,,
Boorkoom Campground,,,,,Australia,,-29.8199436,153.2913878,,,https://www.nationalparks.nsw.gov.au/camping-and-accommodation/campgrounds/boorkoom-campground,,,,,,,,,
Lake Arragan Campground,,,,,Australia,,-29.5681094,153.3368585,,,https://www.nationalparks.nsw.gov.au/,,,,,,,,,
Shelley Head Campground,,,,,Australia,,-29.5253032,153.3592436,,,https://www.nationalparks.nsw.gov.au/,,,,,,,,,
Red Cliff Campground,,,,,Australia,,-29.5785672,153.3344894,,,https://www.nationalparks.nsw.gov.au/,,,,,,,,,
Garden of Eden Caravan Park,,Princes Highway,,,Australia,,-37.0546321,149.9046932,+61 2 6496 1172,,http://www.edengarden.biz/,,yes,,,yes,,,yes,yes
Merimbula Lake Holiday Park,,,,,Australia,,-36.9075412,149.8758754,,,https://merimbulalakeholidaypark.com.au/,,,,,,,,,
SeaChange Parks Milton - Milton Valley Holiday Park,,,,,Australia,,-35.3289707,150.4467935,+61 2 4455 2028,,https://www.miltonvalleyholidaypark.com.au/,,,,,,,,,
Mollymook Caravan Park,,,,,Australia,,-35.3409162,150.465311,,,https://mollymooktouristpark.com.au/,,,,,,,,,
Peppermints campsite,,,,,Australia,,-35.0448583,116.65307,,,,,,,,,,,yes,no
Bodalla Forest Park Rest Area,,,,,Australia,,-36.1508628,150.0958079,,,,yes,no,,,,,,yes,yes
Allenvale Mill Camp Site,,,,,Australia,,-38.5502496,143.95966,,,,,,,,,,,,
Hamelin Pool Caravan Park,,,,,Australia,,-26.4004811,114.1658074,,,https://hamelinpoolcaravanpark.com/,,,,,,,,,
Murray Bridge Caravan Park,,,,,Australia,,-35.1337477,139.3001969,,,,,,,,,,,,
Herberts Camping Area,,,,,Australia,,-38.4889553,143.8961125,,,,,,,,,,,,
Dongara-Denison Tourist Park,,George Street,,,Australia,,-29.278614,114.9179288,+61 8 9927 1210,,https://www.dongaratouristpark.com.au/,,,,,yes,yes,,yes,
Prevelly Caravan Park,,Mitchell Drive,,,Australia,,-33.9806972,114.9948273,,,https://prevellycaravanpark.com.au/,,,,,,,,,
Creswick Caravan Park and Camping Ground,,,,,Australia,,-37.4179765,143.8905085,,,www.creswickcaravanpark.com.au,,,,,,,,,
Leander Reef Holiday Park,,,,,Australia,,-29.2681332,114.9248974,,,,,,,,,,,,
Big4 Bonny Hills Holiday Park,,,,,Australia,,-31.586122,152.8373428,,,,,,,,yes,yes,,yes,
Reflections Bonny Hills - Holiday Park,Reflections Holidays,Ocean Drive,,NSW,Australia,2445,-31.5913341,152.8403282,,bonnyhills@reflectionsholidays.com.au,https://reflectionsholidays.com.au/parks/bonny-hills/,,,,,,,,,
Alex Beach Cabins and Tourist Park,,,,,Australia,,-26.666328,153.1032142,,,,yes,,,yes,yes,yes,,,
Governor's Hill Carapark,,Sydney Road,,,Australia,,-34.7478919,149.7515796,+61 2 4821 7373,governorshillcp@bigpond.com,https://www.governorshillcarapark.com.au/,yes,yes,,,,,,yes,yes
Carnamah Caravan Park,,,,,Australia,,-29.6855261,115.8917116,,,,,,,,,,,,
Coorow Caravan Park,,,,,Australia,,-29.8803963,116.0168334,,,,,,,,yes,yes,,,
Ada River,,,,,Australia,,-37.404196,148.8933219,,,,,,,,,,,,
Jorgenson Flat,,,,,Australia,,-37.7486164,146.4126847,,,,,,,,,,,,
Riverside Cabin Park,,,,,Australia,,-36.4057845,145.3932885,,,https://www.riversidecabinpark.com.au/,,,,,,,,,
Unknown,,,,,Australia,,-35.9442238,149.7353315,,,,,,,,,,,,
Ballidu Caravan Park,Setup and phone caretaker for payt etc,,,,Australia,,-30.5950175,116.772691,,,,yes,yes,,,yes,,,yes,yes
Beverley Caravan Park,Shire of Beverley,,,,Australia,,-32.1080312,116.9241028,,,,yes,yes,,,yes,yes,,yes,yes
Mooloolaba Beach Holiday Park,,,,,Australia,,-26.6826773,153.122843,,,,,,,,,,,,
Calypso,,,,,Australia,,-29.4345241,153.3592771,,,,,,,,yes,,,yes,
Nerang Caravan Park,,,,,Australia,,-27.9937119,153.3374563,,,,,,,,,,,,
Dargo River Inn,,,,,Australia,,-37.4718118,147.2547081,,,,,,,,,,,,
Frenchs Farm,Parks and Wildlife,,,,Australia,,-42.6511305,148.0479315,,,,,no,,,,,,yes,
Encampment Cove Campsite,Parks and Wildlife,,,,Australia,,-42.6633242,148.0371389,,,,,no,,,,,,yes,
Unknown,,,,,Australia,,-31.8428605,152.7417905,,,,,,,,,,,,
Strayleaves Caravan Park,,,,,Australia,,-36.3783221,145.4212536,,,,,,,,,,,,
Heany Park Scout & Guide Camp,,,,,Australia,,-37.939205,145.2540199,,,,,,,,,,,,
Newdegate Motel & Caravan Park,,,,,Australia,,-33.091561,119.0289071,,,,yes,yes,,,yes,,,,yes
BIG4 Caloundra Holiday Park,,Maloja Avenue,,QLD,Australia,4551,-26.8054532,153.124825,,,,,,,,yes,yes,,,
Kioloa Beach Holiday Park,,Murramarang Road,,,Australia,2539,-35.5548857,150.379944,+61 2 4457 1065,,https://www.kioloabeach.com/,yes,,,,yes,yes,,,
Lake Yealering Caravan Park,,,,,Australia,,-32.595071,117.6228319,,,,,,,,,,,,
RACV Inverloch Resort,,,,,Australia,,-38.6483492,145.6845393,,,http://www.racv.com.au/wps/wcm/connect/resorts/racv+resorts/racv+inverloch+resort,,,,,,,,,
Unknown,,,,,Australia,,-34.6385035,148.021726,,,,,,,,,,,,
Peacock Creek Camping Area,,,,,Australia,,-28.6596359,152.715806,,,,,,,,,,,,
Unknown,,,,,Australia,,-27.8827354,153.3664842,,,,,,,,no,no,,,
Somerset Gardens and Tourist Park,,,,,Australia,,-41.0355708,145.8214071,,,,,,,,,,,yes,
BIG4 Nelligen Holiday Park,,,,,Australia,,-35.644415,150.1360115,,,,,,,,,,,,
Griffith Caravan Village,,,,,Australia,,-34.2959525,146.0762131,,,,,,,,,,,,
BIG4 Hay Plains Holiday Park,,,,,Australia,,-34.5186699,144.8439659,,,,,,,,,,,,
Unknown,,,,,Australia,,-26.8335771,153.118186,,,,,,,,,,,,
Harrismith Caravan Park,Shire of Wikipin,,,,Australia,,-32.9357653,117.8626771,,,,yes,yes,,,yes,yes,,yes,yes
Samaldo Caravan Park,,,,,Australia,,-33.508893,151.3749939,,,,,,,,,,,,
Unknown,,,,,Australia,,-34.9178963,150.3881339,,,,,,,,,,,,
Yalwal Campground,,Yalwal Road,,,Australia,2540,-34.922611,150.3846433,,,,,,,,,,,,
Wingello State Forest Camping Area,Forestry Corporation of NSW,Caoura Road,,,Australia,2579,-34.7159062,150.1895847,,,https://www.forestrycorporation.com.au/visit/forests?camping=Yes,yes,no,,,,,,yes,yes
Charleyong Crossing,,Stewarts Crossing Road,,,Australia,,-35.2461699,149.8910078,,,https://www.caravancaravan.com.au/entity/charleyong-crossing-(stewarts-crossing)-camping-area/nsw,,,,,,,,,
Wyanbene Caves,,Wyanbene Road,,,Australia,2622,-35.7948318,149.6830769,,,,,,,,,,,yes,yes
Cowra Van Park,,Lachlan Street,,,Australia,2794,-33.8352551,148.6854356,+61 2 6340 2110,,https://www.cowravanpark.com/,,,,,,,,yes,yes
Lithgow Tourist Park,,,,,Australia,,-33.4728929,150.1299781,+61 2 6351 4350,,https://lithgowcaravanpark.com.au,,,,,,,,,
Flinders Island Cabin Park,,,,,Australia,,-40.0942162,148.0077354,,,www.flindersislandcp.com.au,,,,,,,,,
Summerhill Park,,,,,Australia,,-33.0669032,151.5771039,,,,,,,,,,,,
Shady Acre Caravan Park,,,,,Australia,,-33.0321658,116.8823323,,,,,,,,,,,,
Greenes Creek PWS Camping Area,,,,,Australia,,-41.3320259,144.7524959,,,,,,,,,,,,
Pebbly Beach Camp Ground,NSW National Parks and Wildlife Service,,,,Australia,,-29.9453468,153.2567525,,,https://www.nationalparks.nsw.gov.au/camping-and-accommodation/campgrounds/pebbly-beach-campground-yuraygir-national-park,,,,,,,,,
Lake Tinaroo Holiday Parks,Discovery Holiday Parks,,,,Australia,,-17.170975,145.5455724,,,,,,,,,,,,
Lake Macquarie Village,,,,,Australia,,-33.0995194,151.4771586,,,,,,,,,,,,
Gilgandra Caravan Park,,,,,Australia,,-31.7141957,148.6708923,,,,,,,,,,,,
Mitchell Caravan Park,,,,,Australia,,-30.0902482,145.9507281,,,http://www.mitchellcaravanpark.com.au,yes,yes,,,,,,yes,yes
Twilight Caravan Park,,,,,Australia,,-31.9377755,152.4685447,,,https://twilightcaravanpark.com.au/,,,,,,,,,
Revival Fellowship Camp Site,,Caudle Street,,,Australia,,-35.4327316,138.3292785,,,https://adelaiderevival.com/camp/,,,,,,,,,
Unknown,,,,,Australia,,-15.7016171,126.380897,,,,,,,,,,,,
Blue Topaz Caravan Park,,,,,Australia,,-28.6968991,151.9052593,,,,,,,,yes,,,yes,
Rainbow Flat Caravan Park,,,,,Australia,,-32.0105782,152.4729043,,,,,,,,,,,,
Porcupine Gorge Campground,,,,,Australia,,-20.3451034,144.4603478,,,,,,,,,,,,
Longreach Caravan Park,,,,,Australia,,-23.4460592,144.2422052,,,,,,,,,,,,
Unknown,,,,,Australia,,-34.3542159,139.6171767,,,,,,,,,,,,
Riverside Caravan Park,,,,,Australia,,-31.8768068,152.5919861,,,,,,,,,,,,
Lakeview Caravan Park,Kronosaurus Korner,,,,Australia,,-20.7347456,143.1464383,,,,yes,yes,,,yes,yes,,,
Pinewood Caravan Park,,,,,Australia,,-38.1240588,141.6340416,,,,,,,,,,,,
Cooks Mill Campground - Cathedral Range State Park,Parks Victoria,,,,Australia,,-37.3797948,145.760539,,,https://parkweb.vic.gov.au/explore/parks/cathedral-range-state-park,,,,,,no,,yes,
Tin Hut Camping Area,Victoria DELWP,,,,Australia,,-37.3251621,145.8628539,,,,,,,,,,,,
Thornton Caravan Park,,,,,Australia,,-37.2537119,145.7992392,,,,,,,,,,,,
Tent Lines,,,,,Australia,,-41.02995,146.9822501,,,,,,,,,,,,
Unknown,,,,,Australia,,-33.8426899,150.8569584,,,,,,,,,,,,
Sydney International Equestrian Centre Campsite,,,,,Australia,,-33.8478617,150.8581994,,,,yes,yes,,,,,,yes,yes
Manning River Camping Area,Forestry Corporation of NSW,,,,Australia,,-31.87898,151.491349,,,https://www.forestrycorporation.com.au/visit/forests/barrington-tops,,,,,,,,,
Doon Reserve Caravan Park,,,,,Australia,,-37.7714484,145.6088866,,,,,,,,,,,,
Hidden Valley Tourist Park,,Hidden Valley Road,,,Australia,,-12.4364135,130.9169896,,hiddenvalley@freespiritresorts.com.au,https://www.hiddenvalleyholidaypark.com.au/,,,,,,,,,
Old Kowen Homestead Camping Area,ACT Forests,,,,Australia,,-35.2887027,149.2871162,,,,,,,,,,,,
Birubi Sands,,,,,Australia,,-32.7711807,152.0727955,,,,,,,,,,,,
Yamba Waters Caravan Park,,,,,Australia,,-29.4393637,153.3415741,,,https://www.yambawaters.com.au,,,,,,,,,
Pelican Caravan Park,,,,,Australia,,-30.6790009,152.9752713,,,,,,,,,,,yes,
Grafton Sunset Caravan Park,,,,,Australia,,-29.694793,152.9148063,,,,,,,yes,yes,,,,
Beechworth Holiday Park,,,,,Australia,,-36.3688952,146.707591,,,https://www.beechworthholidaypark.com.au/,,,,,,,,,
Dangars Gorge Campground,NSW National Parks and Wildlife Service,,,,Australia,,-30.6724414,151.7260211,,,,yes,no,,,,,,,
Active Holidays BIG4 Soldiers Point,,,,,Australia,,-32.7115827,152.0699634,,,,,,,,,,,,
Unknown,,,,,Australia,,-37.0820559,148.4139283,,,,,,,,,,,,
Tomago Village Van Park,,,,,Australia,,-32.8202546,151.6980512,,,,,,,,,,,,
Wilderness Retreats,,,,,Australia,,-37.7946679,148.7504571,,,,,,,,,,,,
Conran Cabins,,,,,Australia,,-37.7940325,148.7530618,,,,,,,,,,,,
Clunes Caravan Park,,,,,Australia,,-37.2924956,143.7871447,,,,,,,,,,,,
Heritage Village Toukley,,,,,Australia,,-33.2817025,151.5485111,,,,,,,,,,,,
Murlanda Campground,,,,,Australia,,-22.9764229,113.822927,,,,,,,,,,,,
The Pines Campground,Parks and Wildlife,,,,Australia,,-43.4375131,147.2467186,,,,,no,,,,,,yes,yes
Mount Ive Station,,,,,Australia,,-32.438686,136.068494,,,http://www.mtive.com.au/index.htm,,,,,,,,,
Unknown,Pleasant campsite with trees,,,,Australia,,-31.4725158,135.3671706,,,,,,,,,,,,
Shady sites,,,,,Australia,,-31.3422684,135.3445714,,,,,,,,,,,,
Pyrenees Caravan Park,,,,,Australia,,-37.270432,142.9506521,,,,,,,,,,,,
Baden Powell Park Scout Campsight,Scouts Australia Queensland Branch,Cash Avenue,,,Australia,,-27.3753933,152.893619,,,,,,,,,,,,
Tumbarumba Caravan Park,,Lauder Street,,NSW,Australia,2653,-35.7724293,148.0083142,,,https://www.tumbarumbacaravanpark.com.au/,yes,yes,,,yes,yes,,yes,yes
Dangar Falls Lodge,Set amongst the green hills of Dorrigo with a view to die for is the cosy Dangar Falls Lodge & Camping with full amenities. It’s only a couple hundred metres away from the beautiful Dangar Falls Waterfall and just 5 minutes from the Dorrigo town,,,,Australia,,-30.3218237,152.715434,+61 448 693 541,dangarfallslodge@gmail.com,,,,,,,,,,
Wyoming Caravan Park,,,,,Australia,,-33.4051015,151.349916,,,,,,,,,,,,
Gascoyne River (South Branch) / Doolgunna,,,,,Australia,,-25.5792487,119.2373565,,,,,,,,,,,,
Binna Burra Mountain Lodge Campsite,,,,,Australia,,-28.1981371,153.18727,,,,,,,,,,,,
Wallace Motel & Caravan Park Maryborough,,Ferry Street,,,Australia,4650,-25.5422015,152.6884252,,,https://wallacecaravanpark.com.au/,,,,,yes,yes,,,
Blairs Hut Picnic Area,,,,,Australia,,-37.4190585,145.1292517,,,,,,,,,,,,
Ringers Rest RV Park,,FICHERA ROAD,,,Australia,,-17.0331639,145.4541312,,,,yes,,,,,,,,
Opalton Bush Park,"Opalton Bush Park Camp Ground ,Showers ,Toilets ,Cabins ,Camp Sites ,BBQ and Picnic Shelter",,,QLD,Australia,4735,-23.245578,142.7624769,,,,,,,,,no,,yes,yes
Unknown,,,,,Australia,,-25.5492454,125.3323569,,,,,,,,,,,,
Unknown,,,,,Australia,,-25.1746493,124.6637021,,,,,,,,,,,,
Roma Aussie Tourist Park,,,,,Australia,,-26.5752097,148.7977047,,,,,,,,,,,,
Maine Caravan Park,,,,,Australia,,-23.1301193,150.7418908,,,,,,,,,,,,
Poinciana Tourist Park,,,,,Australia,,-23.1443863,150.7581357,,,,,,,,,,,,
Clarence River Wilderness Lodge,,,,,Australia,,-28.6888661,152.3756882,,,,,,,,,,,,
Bell Park Caravan Park,,,,,Australia,,-23.2540101,150.8246513,,,,,,,,,,,,
Island View Caravan Park,,,,,Australia,,-23.2173633,150.7919346,,,,,,,,,,,,
NRMA Capricorn Yeppoon Holiday Park,,,,,Australia,,-23.1848806,150.7889096,,,,,,,,,,,,
Coolwater Holiday Park,,,,,Australia,,-23.2058133,150.7857626,,,,,,,,,,,,
Causeway Caravan Park,,,,,Australia,,-23.1978597,150.7871967,,,,,,,,,,,,
Coward Springs,,,,,Australia,,-29.4012192,136.8141894,,,,,,,,,,,,
Turtle Sands Caravan Park,,,,,Australia,,-24.8000559,152.4437963,,,,,,,,,,,,
River Bend Camping Ground,,Beechmont Road,,,Australia,,-28.0491042,153.1871503,+61 409 550 745,,,yes,no,,yes,no,,,yes,
Spring Gully Stays,,Sarabah Road,,,Australia,4275,-28.1090838,153.1167831,+61 7 5543 4490,,https://www.springgullystays.com.au/,,,,,yes,,,,
Bigriggen Camping & Caravan Park,,Bigriggan Road,,,Australia,4287,-28.1979588,152.780216,+61 7 5463 6190,,https://www.bigriggen.com.au/,,hot,,yes,yes,yes,,yes,yes
Flanagan Reserve Bush Camping,,Flanagan Reserve Road,,,Australia,4287,-28.2148731,152.76517,+61 7 5544 3128;+61 456 999 241,,https://flanaganreservebushcamping.com.au/,,yes,,,no,yes,,yes,yes
Cooloola Cabins & Caravan Park,,,,,Australia,,-26.3044533,152.7217279,,,,,,,,,,,,
Rawnsley Park Station,Top Tourist Parks,,,,Australia,,-31.6436872,138.5793435,+61 8 8648 0008,,,,,,,,,,,
Bellbird Campsite,,,,,Australia,,-33.7041288,140.1752392,,,,,,,,,,,,
Thomas S J Myers Campsite,,,,,Australia,,-33.7613836,140.1231907,,,,,,,,,,,,
Babbler Campsite,,,,,Australia,,-33.7599349,140.1532995,,,,,,,,,,,,
Sitella Campsite,,,,,Australia,,-33.7444798,140.0327333,,,,,,,,,,,,
Paradise Bridge Tourist Park,,,,,Australia,,-31.1002201,150.937797,,,,,,,,,,,,
Ingenia Holiday Parks Murray Bend,,,,,Australia,,-35.8123362,145.5326622,,,,,,,,,,,,
Broken River Bush Camp,,,,,Australia,,-21.1674151,148.5055782,,,,,,,,,,,,
Mt Nimmel Lodge Campground,,Austinville Road,,QLD,Australia,4213,-28.1367384,153.3189185,+61 448 138 086,mtnimmellodge@gmail.com,http://www.mtnimmellodge.com.au/,,,,,yes,,,,
Woodford Showgrounds,,,,,Australia,,-26.9456558,152.7682937,,,https://woodfordshow.com/show/,,,,,,,,no,
Tenterfield Lodge Caravan Park,,,,,Australia,,-29.0534995,152.0065374,,,,,,,,,,,,
Lorne Foreshore Caravan Park - Kia Ora,,,,,Australia,,-38.5345497,143.9721272,,,,,,,,,,,,
Unknown,,,,,Australia,,-35.7167591,150.178072,,,,,,,,,,,,
Unknown,,,,,Australia,,-35.7320558,150.2012827,,,,,,,,,,,,
Rio Rita Caravan Park,,,,,Australia,,-35.7026938,150.1836475,,,,,,,,,,,,
Eucla Pass Caravan Park,Eucla Motel,,,,Australia,,-31.6783797,128.8818774,,,,yes,yes,,,yes,,,,
Mann River Caravan Park,,,,,Australia,,-29.5774801,152.5514988,,,https://www.mannriver.com.au/,,,,,yes,,,yes,
Mount Warning Holiday Park,,,,,Australia,,-28.3890249,153.3236746,,,,,,,,,,,,
Springsure Roadhouse and Caravan Park,,,,,Australia,,-24.1240734,148.0977828,+61 7 4984 1418,springsureroadhouse@gmail.com,https://www.springsureroadhouse.com.au/,yes,yes,,,yes,,,yes,yes
Rubyvale Caravan Park,,,,,Australia,,-23.4186616,147.6978551,,,,,,,,,,,,
Clayton Bay Riverside Holiday Park,,,,,Australia,,-35.49241,138.9217789,,,https://claytonbayrhp.com.au/,,,,,,,,,
Free night park,You can stay here for 24hr,,,,Australia,,-22.495337,114.0031232,,,,,,,,,,,,
Scamander Kookaburra Caravan Park,,,,,Australia,,-41.4510351,148.2635217,+61 3 6372 5121,,,,,,,,,,,
Lakeview Caravan Park,,,,,Australia,,-27.8967748,153.3717105,,,,,,,,,,,,
Deloraine Apex Caravan Park,,,,,Australia,,-41.5275388,146.6525539,,,,,,,,,,,,
Salamander Bay Village,,,,,Australia,,-32.7181782,152.0726932,,,,,,,,,,,,
SS Dorrigo,,,,,Australia,,-25.8190068,153.0719551,,,,,,,,,,,,
MV Natone,,,,,Australia,,-25.8140619,153.0684961,,,,,,,,,,,,
MV Beagle,,,,,Australia,,-25.8100208,153.0632433,,,,,,,,,,,,
MV Sarawak,,Inskip Point Road,,,Australia,4581,-25.8098585,153.0596899,+61 137468,,https://parks.desi.qld.gov.au/parks/inskip-peninsula/camping/mv-sarawak-camping-area,,,,,,,,yes,yes
Unknown,,,,,Australia,,-36.1520295,146.6128076,,,,,,,,,,,,
Western KI Caravan Park,,,,,Australia,,-35.959853,136.8086505,,,,,,,,,,,,
Rum Jungle,"Department of National Parks, Sport and Racing",,,,Australia,,-28.281837,152.6909576,,,http://www.nprsr.qld.gov.au/parks/mount-barney/camping.html#rum_jungle_bush_camp_site,,,,,,,,,
Mittagong Caravan Park,Wingecarribee Shire Council,Old Hume Highway,,NSW,Australia,2575,-34.4461462,150.4578768,,,https://www.mittagongcaravanpark.com.au/,,,,,yes,,,yes,
Hillcrest Holiday Park,,,,,Australia,,-25.1855027,152.6083678,,,https://burrumheadshillcrestholidaypark.com/,,,,,yes,,,yes,
Road Nite Caravan Park,,,,,Australia,,-37.8766593,147.995265,,,,,,,,,,,,
Monkey Mia Caravan Park,,,,,Australia,,-25.7941427,113.7160892,,,http://monkeymia.com.au/pages/1514/caravan-and-camping,yes,,,yes,yes,yes,,,
Waterfall Creek Reserve,Scenic Rim Regional Council,Waterfall Creek Road,,,Australia,4310,-28.2049388,152.6679027,,,https://www.scenicrim.qld.gov.au/national-parks-and-camping,,,,,,,,,
Fitzroy Island Campsite,QPWS,,,,Australia,,-16.929143,145.9901864,,,,,,,,,,,yes,no
2nd Castlemaine Scout Camp,Scouts Victoria,,,,Australia,,-37.1124125,144.2497699,,,,,,,,,,,,
Unpowered,,,,,Australia,,-35.5603771,138.6127245,,,,,,,,,,,,
Benalla Leisure Park,,,,,Australia,,-36.5424534,146.007334,,,,,,,,,,,,
Riverside Cabin and Van Park,,,,,Australia,,-32.267358,150.8852716,,,,,,,,,,,,
Mount Werong Campground,National Parks and Wildlife,,,,Australia,,-34.0784344,149.9264783,,,,,,,,,,,,
Wulwunj,,,,,Australia,,-12.0922184,132.8903827,,,,,,,,,,,,
Hillview Caravan Park,,,,,Australia,,-37.6113553,140.372058,,,,,,,,,,,,
Huntsville Caravan Park,,Gympie Road,,,Australia,4650,-25.5451262,152.6854232,+61 7 4121 4075,,https://www.huntsvillecaravanpark.com.au,,,,,yes,yes,,,
Campround 1 (No Generators),,,,,Australia,,-11.1310316,132.1724408,,,,,,,,,,,,
Darlington Park Camping Ground,,Kerry Road,,,Australia,4285,-28.1851685,153.0405455,+61 7 5544 8120,,https://www.darlingtonandburgessparks.com.au/,,,,,,,,,
First Bay Camping Area,,,,,Australia,,-30.6597358,153.0046446,,,,,,,,,,,,
Second Bay Camping Area,,,,,Australia,,-30.6690314,152.9989476,,,,,,,,,,,,
Mill Creek Campsite,Parks and Wildlife,,,,Australia,,-43.142695,147.9677415,,,https://parks.tas.gov.au/explore-our-parks/tasman-national-park/fortescue-bay-camping,,yes,,,,,,yes,yes
Edgar Campground,,,,,Australia,,-43.0306305,146.3499285,,,,,,,,,,,,
Keppel Creek Camping Area,,,,,Australia,,-37.4475389,145.7570416,,,,,,,,,no,,yes,
Camp Site 4,,,,,Australia,,-28.1576082,152.8403233,,,,,,,,,,,,
Camp site 7,,,,,Australia,,-28.1558965,152.8395938,,,,,,,,,,,,
Camp Site 6,,,,,Australia,,-28.1561383,152.8403502,,,,,,,,,,,,
Camp Site 8,,,,,Australia,,-28.1560059,152.843642,,,,,,,,,,,,
Camp Site 13,,,,,Australia,,-28.1668781,152.8367485,,,,,,,,,,,,
Camp Site 14,,,,,Australia,,-28.1675038,152.8363774,,,,,,,,,,,,
Lake Paluma Camp Site,Townsville City Council,,,,Australia,,-18.9564568,146.1484977,,,https://www.townsville.qld.gov.au/facilities-and-recreation/parks-beaches-and-community-venues/parks-trails-and-camping/lake-paluma,,,,,,no,,,
Lake Paluma Camp Site,Townsville City Council,,,,Australia,,-18.9558183,146.150402,,,https://www.townsville.qld.gov.au/facilities-and-recreation/parks-beaches-and-community-venues/parks-trails-and-camping/lake-paluma,,,,,,,,,
Tannum Sands,,,,,Australia,,-23.9553536,151.3765237,,,,,,,,,,,,
Camp Site 1,,,,,Australia,,-28.1666504,152.8407841,,,,,,,,,,,,
Camp Site 2,,,,,Australia,,-28.1587429,152.8397812,,,,,,,,,,,,
Camp Site 10,,,,,Australia,,-28.1516434,152.8489212,,,,,,,,,,,,
Island Lagoon Lookout,,,,,Australia,,-31.3793343,136.9235438,,,,,,,,,,,,
Albury All Seasons Caravan Park,,Wagga Road,,NSW,Australia,2641,-36.0414702,146.9522502,,,https://hampshireholidays.com.au/park/albury-all-seasons-tourist-park/,,,,,,,,,
Unknown,,,,,Australia,,-30.7083238,150.0451946,,,,,,,,,,,,
Discovery Holiday Parks - Argylla (BIG4),,,,,Australia,,-20.722183,139.515826,,,https://www.big4.com.au/caravan-parks/qld/mount-isa,,,,,yes,,,,
Melrose Campground,,,,,Australia,,-32.8236878,138.1859621,,,,yes,yes,,,,,,yes,yes
Two Mile Creek,,,,,Australia,,-37.4016784,147.2522361,,,,,,,,,,,,
Red Bluff Campsite,,,,,Australia,,-24.0279036,113.4523928,,,,yes,,,,,,,,
Minilya,,,,,Australia,,-23.8172335,114.0096885,,,,,,,no,,,,yes,yes
House Creek Bridge,,,,,Australia,,-22.4644203,116.0373271,,,,yes,,,,,,,yes,yes
RIP Lookout,Rest area with overnight camping allowed.,,,,Australia,,-22.6771446,117.8959311,,,,no,,,,,no,,yes,yes
Whim Creek Free Campsite,Showers 4$ or by any purchase from pub,,,,Australia,,-20.8394843,117.8357878,,,,yes,,,,,,,yes,yes
West Peawah River Rest Area,,,,,Australia,,-20.8474289,118.0681005,,,,yes,no,,no,,,,yes,yes
Oxyley Anchorage Caravan Park,,,,,Australia,,-31.8714579,152.6829685,,,,,,,,,,,,
Spotted Tiger Campground,,,,,Australia,,-23.0388879,134.9198932,,,,,,,,,,,,
Walkamin Central Van Park,,,,,Australia,,-17.1330552,145.4288843,,,,,,,,,,,,
Cave Beach Camping Area,,,,,Australia,,-35.1608031,150.6671875,,,,,,,,,,,,
Broadwater Caravan Park,,,,,Australia,,-27.9568082,153.4113799,,,,,,,,yes,,,,
BIG4 Ingenia Holidays Broulee,,,,,Australia,,-35.8572465,150.1742371,,,,,,,,,,,,
Lake Hume Tourist Park,,,,,Australia,,-36.1046536,147.0380705,,,,,,,,,,,,
Unknown,,,,,Australia,,-32.376723,152.5201849,,,,,,,,,,,,
Wallace Rockhole Tourist Park,,,,,Australia,,-24.1259053,133.0868057,,,,yes,yes,,,,,,,
Kaltukatjara Campground,,,,,Australia,,-24.8656363,129.0616613,,,,,,,,,,,,
Wollongong Surf Leisure Resort,,,,,Australia,,-34.3905685,150.9069797,,,,,,,,,,,,
Rochester Riverside Holiday Park,,,,,Australia,,-36.3614442,144.7046826,,,,,,,,,,,,
Merool on the Murray,Tasman Holiday Parks,,,,Australia,,-36.1142321,144.730016,,,https://tasmanholidayparks.com/au/caravan-parks/merool-on-the-murray,,,,,,,,,
Wild Bull Camping Area,Forestry Corporation of NSW,,,,Australia,,-31.245928,152.5130336,,,https://www.forestrycorporation.com.au/visit/forests/mount-boss,,,,,,,,,
Habitat Noosa Everglades EcoCamp,The Discovery Group,,,,Australia,,-26.2538068,152.9990519,+61 7 5485 3165,,https://www.habitatnoosa.com.au/,,,,,,,,,
Ingenia Holidays Rivershore,,,,,Australia,,-26.6360491,153.0452921,,,https://www.ingeniaholidays.com.au/rivershore,,,,,,,,,
Harrington Beach Holiday Park,,,,,Australia,,-31.8695771,152.6957806,,,,,,,,,,,,
Blackbird Flat Camping Ground,,,,,Australia,,-30.7630939,152.36286,,,,,,,,,,,,
Lake Moorgerah Caravan Park,,,,,Australia,,-28.0449013,152.5508828,,,,,,,,,,,,
Little River Walk-in Camping Area,,,,,Australia,,-37.8168256,144.2678387,,,,,,,,,,,yes,no
Widgiemooltha Tavern & Roadhouse,,,,,Australia,,-31.4957706,121.5783383,,,,yes,yes,,,yes,,,yes,yes
Pottsville South Holiday Park,,,,,Australia,,-28.390137,153.5658014,,,,,,,,,,,,
Unknown,,,,,Australia,,-37.2463713,141.8408168,,,,,,,,,,,,
Angusvale Camp Ground,,Angusvale Track,,,Australia,,-37.5914755,147.3528155,,,,,,,,,,,,
Koonawarra Family Holiday Park,,Princes Highway,,,Australia,3909,-37.8760292,148.0046206,+61 3 5155 1222,,http://www.koonwarrapark.com.au,,,,,,,,,
Unknown,,,,,Australia,,-14.0055946,131.245764,,,,,,,,,,,,
Boyd River Camping Area,National Parks and Wildlife Service,,,,Australia,,-33.9710722,150.0563543,,,http://www.nationalparks.nsw.gov.au/camping-and-accommodation/campgrounds/boyd-river-campground/Visitor-Info#Accessibility,,,yes,,,,,,yes
The Sink campground,National Parks and Wildlife,,,,Australia,,-34.0975275,149.6582349,,,https://www.nationalparks.nsw.gov.au/camping-and-accommodation/campgrounds/the-sink-campground/map/,,,,,,,,,
The Beach campground,National Parks and Wildlife,,,,Australia,,-34.1293208,149.6352078,,,https://www.nationalparks.nsw.gov.au/camping-and-accommodation/campgrounds/the-beach,,,,,,,,,
Silent Creek campground,National Parks and Wildlife,,,,Australia,,-34.1579749,149.6782563,,,https://www.nationalparks.nsw.gov.au/camping-and-accommodation/campgrounds/silent-creek-campground,,,,,,,,,
Private Town Campground,Private,,,,Australia,,-34.1165329,150.2107799,,,https://www.nationalparks.nsw.gov.au/camping-and-accommodation/campgrounds/private-town-campground,yes,yes,,,,,,yes,no
Batsh Camp,National Parks and Wildlife Service,,,,Australia,,-34.1437687,150.0925201,,,https://www.exploreaustralia.net.au/New-South-Wales/Blue-Mountains/Blue-Mountains-National-Park/Batsh-Camp-camping-area,,,,,,,,,
Unknown,,,,,Australia,,-33.6452382,115.3534442,,,,,,,,,,,,
Left of Field Camping Gardens,,,,,Australia,,-42.6885654,146.7159765,+61 418 136 434,,http://leftoffield.net.au/,yes,yes,,yes,,,,yes,yes
Flaxton Walkers Camp,,,,,Australia,,-26.6543182,152.8594708,,,,,,,,,,,,
Ubajee Walkers Camp,,,,,Australia,,-26.603899,152.8299855,,,,,,,,,,,,
Thilba Thalba Walkers Camp,,,,,Australia,,-26.5903678,152.795397,,,,,,,,,,,,
90 Mile Beach Holiday Retreat,,,,,Australia,,-38.1169788,147.5152005,,,,,,,,,,,,
Bivouac Junction,,,,,Australia,,-19.9836642,146.4347381,,,,,,,,,,,,
Lake Hart Lookout,,,,,Australia,,-31.233569,136.4053442,,,,,,,,,,,,
Glendambo Outback Resort and Tourist Centre,,,,,Australia,,-30.970111,135.7524082,,,,,,,,,,,,
Unknown,,,,,Australia,,-12.7152759,130.6227088,,,,,,,,,,,,
Crab Claw Island Resort,,,,,Australia,,-12.7077697,130.6226139,,,,,,,,,,,,
Whitewater Wall Camp Site,,,,,Australia,,-42.1046645,148.3389273,,,,,no,,,,no,,,
Badgers Wood Campground,Noosa Sea Scout Group,Eumundi Noosa Road,,,Australia,,-26.3999022,153.0528711,,campground@noosa.scoutsqld.com.au,https://noosaseascouts.com.au/shop/,yes,,,,no,,,,
Mitchells Flat Camping Area,,,,,Australia,,-37.3041077,146.3593525,,,,,,,,,,,,
Careys Reserve,,,,,Australia,,-35.091921,148.6738366,,,,yes,no,,,,,,,
McArthur River Caravan Park,,,,,Australia,,-16.0699613,136.3082793,,,,,,,,,,,,
Grants Lagoon - Bay of Fires Cons Area,,,,,Australia,,-41.2539363,148.2894425,,,,,,,,,,,,
Dora Point Camping Area - Humbug Point Nature Rec Area,,,,,Australia,,-41.2772566,148.3263804,,,,,,,,,,,,
Heifer Creek,,,,,Australia,,-27.7491295,152.0900206,,,,,,,,,,,,
Reflections Burrinjuck Waters Holiday Park,Reflections Holidays,Burrinjuck Road,,,Australia,,-34.9810715,148.6212873,+61 2 6227 8114,burrinjuckwaters@reflectionsholidays.com.au,https://reflectionsholidays.com.au/parks/burrinjuck-waters/,yes,yes,,,,,,yes,yes
Land of the Giants Caravan Park,Parks and Wildlife Services,,,,Australia,,-42.684873,146.7161268,,,,,,,,,,,,yes
Unknown,,,,,Australia,,-37.1102257,146.5334853,,,,,,,,,,,,
Duke of Orleans,,,,,Australia,,-33.9256969,122.5782969,,,,,,,,,,,,
Frank Potts Reserve,,,,,Australia,,-35.2990297,139.0425856,,,,,,,,,,,,
Richmond Caravan Park,,,,,Australia,,-42.7372311,147.4251896,,,,,,,,,,,,
Wicked Campervan Hire,,,,,Australia,,-37.8008257,144.9171966,,,,,,,,,,,,
New Norcia self-contained Caravans Site,,,,,Australia,,-30.9746777,116.2145131,,,,no,,,,no,,,no,yes
Rosebud Foreshore Section 9,,,,,Australia,,-38.3572044,144.8971815,,,,,,,,,,,,
BIG4 Taggerty Holiday Park,,,,,Australia,,-37.3176794,145.712133,,,https://www.big4.com.au/caravan-parks/vic/yarra-valley-dandenong-ranges/taggerty-holiday-park,,,,,,,,,
Unknown,,,,,Australia,,-37.240022,145.7094463,,,,,,,,,,,,
Rocks Ferry Reserve,,,,,Australia,,-31.4521421,152.7453904,,,,,,,,,,,,
Mullaley Park,Gunnedah Shire Council,,,,Australia,,-31.0973323,149.9098039,,,,,,,,,,,,
Two Camel Creek Rest Area,"24hr Rest Area, Toilets, Dump Point, Shelters, Bitumin surface - some small scrub areas may suit tents.",,,,Australia,,-21.6658854,118.8162447,,,,,,,,,,,,
Big 4 Holiday Park,,,,,Australia,,-38.4092432,144.1805073,,,https://www.big4.com.au/caravan-parks/vic/great-ocean-road/anglesea-holiday-park,,,,,,,,yes,yes
Granthams Bend Campground,,,,,Australia,,-35.980165,146.4179484,,,,,,,,,,,,
Saunders Park,,,,,Australia,,-19.1540335,146.6040185,,,,,,,,,,,,
Windjana Gorge National Park,,,,,Australia,,-17.4126067,124.9418865,,,,,,,,,,,,
Windjana Gorge National Park,,,,,Australia,,-17.4145627,124.9432679,,,,,,,,,,,,
Balgal Beach Rest Area,,,,,Australia,,-19.0102731,146.405222,,,,,,,,,,,,
Coonalpyn Soldiers Memorial Caravan Park,,,,,Australia,,-35.6929547,139.8568068,,,,,,,,,,,,
Millicent Lakeside Caravan Park,,,,,Australia,,-37.5911139,140.3386349,,,,,,,,,,,,
Marryat Creek Rest Area,,,,,Australia,,-26.3413628,133.201567,,,,,,,,,,,,
Marryat Creek North Rest Area,,,,,Australia,,-26.2783497,133.1891936,,,,,,,,,,,,
Pinaroo Leisure Park,,,,,Australia,,-32.2806689,150.9067672,,,,,,,,,,,,
Elliot Ridge Great Ocean Walk Campsite,Parks Victoria,,,,Australia,,-38.7912154,143.612825,,,,,,,,,,,,
Aysons Reserve,,Burnewang Road,,,Australia,3558,-36.4586652,144.670798,,,,,,,,,,,,
Bulahdelah,,,,,Australia,,-32.4139276,152.2051053,,,,,,,,,public,,,
Unknown,,,,,Australia,,-30.7093303,152.9207134,,,,,,,,,,,,
Muttaburra Caravan Park,,,,,Australia,,-22.5935267,144.5521342,,,,,,,,yes,,,,
Mortlake Caravan Park,Moyne Shire Council,,,,Australia,,-38.0842369,142.8091285,,,,,,,,yes,yes,,yes,
Pikes Flat,,,,,Australia,,-37.1795835,146.5131099,,,,,,,,,,,,
Beauty Point Tourist Park,,,,,Australia,,-41.1444699,146.8081368,,,https://beautypointtouristpark.com.au/,,,,,,,,,yes
Reservoir Campsite,,,,,Australia,,-37.1205749,145.1929243,,,,,,,,,,,,
North Tent Hill Rest Area,,,,,Australia,,-32.2417652,137.54581,,,,,,,,,,,,
Unknown,,,,,Australia,,-32.1734898,137.4795714,,,,,,,,,,,,
Ranges View Rest Area,,,,,Australia,,-32.0343083,137.4447426,,,,yes,,,yes,,,,,
Unknown,,,,,Australia,,-31.8390489,137.3275901,,,,,,,,,,,,
Unknown,,,,,Australia,,-33.3911414,138.1708762,,,,,,,,,,,,
Port Germein South Rest Area 1,,,,,Australia,,-33.0423555,138.0301836,,,,,,,,,,,,
Mambray Creek Rest Area,,,,,Australia,,-32.8462892,137.982096,,,,,,,,,,,,
BIG4 Wagga Wagga Holiday Park,,,,,Australia,,-35.119878,147.3895119,,,,,,,,,,,,
The Pines Camping Area,,,,,Australia,,-31.743481,150.0292307,,,,,,,,,,,,
Bald Hills Camping Area,,,,,Australia,,-31.7569214,150.0124819,,,,,,,,,,,,
Dolphin Point Tourist Park,,,,,Australia,,-35.3935283,150.4441036,,,,,,,,,,,,
Cox's Creek Camping Area,NSW NPWS,,,,Australia,,-31.7326048,150.0107297,,,,,,,,,,,,
The Barracks Camping Area,,,,,Australia,,-31.7309774,150.0153884,,,,,,,,,,,,
Little Beach Camping Area,,,,,Australia,,-33.5104424,151.4180151,,,https://www.nationalparks.nsw.gov.au/camping-and-accommodation/campgrounds/little-beach-campground,,,,,,,,,
McNamara Park,,,,,Australia,,-32.7467011,151.100171,,,https://huntervalleyvisitorcentre.com.au/businesses/detail/mcnamara-park-rest-area/,yes,no,,,,,,yes,yes
Unknown,,,,,Australia,,-16.7263022,145.6468972,,,,,,,,,,,,
unpowered sites,,,,,Australia,,-34.4483707,140.5484848,,,,,,,,,,,,
Putty Beach Camping Area,"* A min nightly rate applies, which includes the first 2 occupants. * Nightly rate: $34 (inc 2 people); $17 per additional adult (16+ years); $8.50 per additional child (5–15 years); infants free (0–4 years).",,,,Australia,,-33.5274713,151.3714236,,,https://www.nationalparks.nsw.gov.au/camping-and-accommodation/campgrounds/putty-beach-campground,yes,yes,,yes,,,,yes,no
The Forest Camp,Parks Victoria,,,,Australia,,-36.2216241,146.1789795,,,,yes,no,,,,,,yes,yes
Hawker Caravan Park,,,,,Australia,,-31.8848433,138.4130437,,,,,,,,,,,,
Stawell Park Caravan Park,,,,,Australia,,-37.096662,142.7923147,,,,,,,,,,,,
Lake Cobbler,,,,,Australia,,-37.0508597,146.6266616,,,,,,,,,,,,
Reflections Brunswick Heads,North Coast Holiday Parks,Fingal Street,,,Australia,,-28.5427639,153.5502122,+61 2 6685 1233,,https://reflectionsholidays.com.au/parks/brunswick-heads/,,,,,,yes,,yes,yes
Unknown,,,,,Australia,,-29.6657807,152.9390269,,,,,,,,,,,,
Tropic Breeze Caravan Park,,Davidson Street,,,Australia,4877,-16.4880336,145.4657876,+61 7 4099 5299,info@tropicbreeze.com.au,https://tropicbreeze.com.au/,yes,yes,,yes,yes,,,yes,yes
"""The Pines"" Scout Camp, 4th Altona",Scouting Association,Altona Road,,VIC,Australia,3018,-37.8610037,144.8511127,,,https://scoutsvictoria.com.au/about-us/campsites/the-pines/,,,,,,,,yes,no
Calliope River RA,Gladstone City Council,,,,Australia,,-23.9608778,151.1531849,,,,,,,,,,,,
Baroota Ruins Campground,,,,,Australia,,-32.8415792,138.0167566,,,,,,,,,,,,
Mambray Creek campground,,,,,Australia,,-32.8397514,138.0374791,,,,,,,,,,,,
Gawler Caravan Park,,,,,Australia,,-34.5916876,138.7457201,,,,,,,,,,,,
The Tooma Inn,Rob McClung and Lindy O'Connor,Possum Point Road,,NSW,Australia,2642,-35.9678201,148.058229,+61 2 6948 4012,thetoomainn@outlook.com.au,,,,,,,,,,
Tasman Holiday Parks Lake Mulwala,Tasman Holiday Parks,,,,Australia,,-35.9776283,146.0648341,,,https://tasmanholidayparks.com/au/caravan-parks/lake-mulwala/,,,,,,,,,
Reflections Eden - Holiday Park,Reflections Holidays,Aslings Beach Road,,,Australia,2551,-37.0512241,149.9151245,+61 2 6496 1139,Eden@reflectionsholidays.com.au,https://reflectionsholidays.com.au/parks/eden/,,,,,yes,,,,
Kelso Sands Holiday Park,,,,,Australia,,-41.0926728,146.7818636,,,,,,,,,,,,
McIver Campground,,,,,Australia,,-36.9285208,146.7188415,,,,,,,,,,,,
Unknown,,,,,Australia,,-37.1873975,146.8119979,,,,,,,,,,,,
Wonnangatta Caravan Park,,,,,Australia,,-37.5080465,147.1999799,,,,,,,,,,,,
BIG4 Holiday Resort,,,,,Australia,,-26.6944126,153.0110825,,,,,,,,,,,,
Big 4 Discovery Park,,Pertobe Road,,VIC,Australia,3280,-38.3944065,142.4737765,,,,yes,,,,,,,,
Proserpine Tourist Park,,Anzac Road,,QLD,Australia,4800,-20.404683,148.5713599,,,,,,,,,,,,
Proserpine Tourist Park,,,,,Australia,,-20.4053386,148.5720865,,,,,,,,,,,,
Karingal Scout Campsite,Scouts Australia Queensland Branch,Karingal Road,,,Australia,4165,-27.6040279,153.2218882,,,,,,,,,,,,
Warrnambool Holiday Village,,,,,Australia,,-38.377888,142.4778745,,,,,,,,,,,,
Newcarlbeon Rock Camping Ground,,,,,Australia,,-30.6666288,117.4180231,,,,,,,,,,,,
Sun Siesta Caravan Park,,,,,Australia,,-34.2337055,142.0950066,,,,,,,,,,,,
Beringbooding Rock Camping Ground,,,,,Australia,,-30.5583991,118.4922438,,,,yes,no,,,,,,,
Ingenia Holiday Park Orana,,,,,Australia,,-38.6723997,145.6208795,,,,yes,,,,,,,,
Nobby Rest Area,Toowoomba Regional Council,,,,Australia,,-27.8533512,151.9034598,,,,,,,,yes,,,,
Venice Caravan Park,,,,,Australia,,-33.5600012,150.1999411,,,,,,,,,,,,
Camp Moogerah,,,,,Australia,,-28.0295988,152.5616026,,,,,,,,,,,,
Mycow Freedom Campground,Low cost camping and RV park operated by Mycow Accommodation.,Main Street,,QLD,Australia,4740,-21.2126419,149.1464547,+61 7 4952 2806,enquiries@mycowaccommodation.com.au,https://mycowaccommodation.com.au/,,,,,,,,,
Waratah Beach Camp,,Gale Street,,VIC,Australia,3959,-38.8106729,146.0632276,+61 3 5684 1435,,https://www.waratahbeachcamp.com.au/,,,,,,,,,
Murray River Caravan Park,,,,,Australia,,-34.7165234,143.1470964,,,,,,,,,,,,
Mollerin Rock Camping Ground,,,,,Australia,,-30.5382558,117.5664837,,,,,,,,,,,,
Glen Davis Reserve Campground,Lithgow City Council,,,,Australia,,-33.125659,150.2814436,,,,yes,yes,,,no,,,yes,yes
Darug Camp Area,,,,,Australia,,-33.7980658,150.6181773,,,https://www.nationalparks.nsw.gov.au/camping-and-accommodation/campgrounds/euroka-campground,yes,,yes,,,,,yes,no
Dogwood Creek Camping Area,,,,,Australia,,-26.4238349,150.5047077,,,,,,,,,,,,
Old School House,,,,,Australia,,-36.8879694,146.2355241,,,,yes,,,,,,,,
Sandy Point Holiday Park,,,,,Australia,,-38.8293544,146.1235954,,,,,,,,,,,,
Unknown,,,,,Australia,,-41.810086,146.2803157,,,https://parks.tas.gov.au/explore-our-parks/walls-of-jerusalem-national-park/walls-of-jerusalem-multi-day-walk,,no,,,,,,yes,no
Unknown,,,,,Australia,,-41.810186,146.2802966,,,https://parks.tas.gov.au/explore-our-parks/walls-of-jerusalem-national-park/walls-of-jerusalem-multi-day-walk,,no,,,,,,yes,no
Wild Dog Creek Commercial Camping Area,,,,,Australia,,-41.8112944,146.2803126,,,https://parks.tas.gov.au/explore-our-parks/walls-of-jerusalem-national-park/walls-of-jerusalem-multi-day-walk,yes,no,,,,,,yes,no
Wild Dog Creek Commercial Camping Area,,,,,Australia,,-41.8112498,146.2802201,,,https://parks.tas.gov.au/explore-our-parks/walls-of-jerusalem-national-park/walls-of-jerusalem-multi-day-walk,yes,no,,,,,,yes,no
Wild Dog Creek Commercial Camping Area,,,,,Australia,,-41.8111831,146.2803291,,,https://parks.tas.gov.au/explore-our-parks/walls-of-jerusalem-national-park/walls-of-jerusalem-multi-day-walk,yes,no,,,,,,yes,no
Unknown,,,,,Australia,,-41.8103659,146.2799763,,,https://parks.tas.gov.au/explore-our-parks/walls-of-jerusalem-national-park/walls-of-jerusalem-multi-day-walk,yes,no,,,,,,yes,no
