post_title,post_content,post_address,post_city,post_region,post_country,post_zip,post_latitude,post_longitude,post_tel,post_email,post_website,toilets,shower,bbq,drinking_water,power_supply,sanitary_dump_station,dogs,tents,caravans
Tyndale Caravan Park,,,,,Australia,,-29.5614791,153.1495022,,,https://tyndaleroadhouse.com.au,,,,,,,,,
Woody Head Campground,,,,,Australia,,-29.3656071,153.3722785,,,https://www.nationalparks.nsw.gov.au/camping-and-accommodation/campgrounds/Woody-Head-campground,yes,yes,,yes,no,yes,,yes,yes
Smoky Cape Campground,,,,,Australia,,-30.9288514,153.0775461,,,https://www.nationalparks.nsw.gov.au/camping-and-accommodation/campgrounds/Smoky-Cape-campground,,,,,,,,,
Delicate Nobby Campground - Goolawah Res,,,,,Australia,,-31.260454,152.9684346,,,https://www.nationalparks.nsw.gov.au/camping-and-accommodation/campgrounds/Delicate-campground,,,,,,,,,
Racecourse Headland Campground - Goolawah Res,,,,,Australia,,-31.2495551,152.9604298,,,https://www.nationalparks.nsw.gov.au/camping-and-accommodation/campgrounds/Racecourse-campground,,,,,,,,,
Heritage Park Rest Area,,,,,Australia,,-29.6628437,151.7763663,,,,yes,no,,,,,,,
Basket Swamp Camping Area,,,,,Australia,,-28.909999,152.1537639,,,,,,,,,,,,
Old Bonalbo Pioneers Park,,,,,Australia,,-28.6429389,152.5971918,,,,yes,no,,,,,,,
Tabulam Race Track,,,,,Australia,,-28.9076148,152.5534466,,,,yes,yes,,,yes,,,yes,yes
Sheepstation Creek Campground - Walk-In Campsites,,,,,Australia,,-28.4122989,153.0220238,,,,,,,,,,,,
Bellbird Campground,,,,,Australia,,-29.47399,152.3152689,,,,,,,,,,,,
Dandahra Creek RA,,,,,Australia,,-29.4801565,152.4501243,,,,,,,,,,,,
Snowy Range Rest Area,,,,,Australia,,-30.4254617,152.3244409,,,,no,no,,no,no,no,,yes,yes
Myall Creek Rest Area,,,,,Australia,,-29.775,150.71694,,,,no,,,,,,,,
Wollomombi Campground,NSW National Parks and Wildlife Service,,,,Australia,,-30.5315516,152.0273951,,,,yes,no,,,,,,,
Walcha East Rest Area,,,,,Australia,,-31.0034827,151.6300768,,,,no,,,,,,,,
Lakeside Caravan Park - Lake Keepit State Park,,,,,Australia,,-30.8967353,150.5059558,,,,,,,,,,,,
Mcdonalds Hole Road Rest Area,,,,,Australia,,-33.06583,149.93556,,,,,,,,,,,,
Copeton Waters State Park,Reflections Holidays,,,,Australia,,-29.9222577,150.9406515,,,,,,,,,,,yes,yes
Bakers Shaft Reserve,,,,,Australia,,-33.60944,149.01194,,,,,,,,,,,,
Carcoar Dam,,,,,Australia,,-33.6114139,149.1811066,,,,,,,,,,,,
Chifley Dam Camping Area,,,,,Australia,2795,-33.561058,149.6314978,,,https://www.bathurstregion.com.au/members/chifley-dam-primitive-camping-area/,,,,,,,,,
Bilpin Reserve Rest Area,,,,,Australia,,-33.4960417,150.517721,,,,yes,no,,,,,,no,yes
Wombeyan Caves Campground,,,,,Australia,,-34.3039533,149.9711458,,,,yes,yes,,,,,,,
Tooleybuc Caravan Park,,,,,Australia,,-35.0295175,143.3368476,,,,,,,,,,,,
Trentham Cliffs Caravan Village,,,,,Australia,,-34.2249555,142.2458364,,,,,,,,,,,,
Unknown,,,,,Australia,,-34.5789187,150.253398,,,,,,,,,,,,
Edrom Road RA,,,,,Australia,,-37.1908285,149.8498546,,,,,,,,,,,,
Congo Point Campground - Eurobodalla NP,,,,,Australia,,-35.9547147,150.1580521,,,,,,,,,,,,
Whittakers Creek,,,,,Australia,,-36.1285783,150.0931393,,,,,,,,,,,,
Benandarah Rest Area,,,,,Australia,,-35.6529066,150.2356849,,,,,,,,,,,,
Geehi Flats Campground,NSW National Parks and Wildlife Service,,,,Australia,,-36.3801314,148.1780833,,,,yes,no,,,,,,,
Bunyip Hole Reserve,,,,,Australia,,-34.5604043,145.9902893,,,,,,,,,,,,
Cooey Point Reserve,,,,,Australia,,-34.4765268,145.3221699,,,,,,,,,,,,
Frampton Rotary Park - Cunjigong Creek Rest Area,,,,,Australia,,-34.702481,147.9416531,,,,no,,,,,,,yes,yes
Yerong Creek Recreation Ground,,,,,Australia,,-35.3864955,147.0676207,,,,,yes,,yes,yes,,,yes,yes
Oura Beach,,,,,Australia,,-35.12234,147.5428663,,,,,,,,,,,,
Berry Jerry Rest Area,,,,,Australia,,-35.0604979,147.0535747,,,,yes,no,,,,,,,
Sandigo Rest Area,,,,,Australia,,-34.921199,146.647042,,,,,,,,,,,,
Kywong Rest Area,,,,,Australia,,-34.98583,146.73917,,,,,,,,,,,,
Airport Tourist Park,,,,,Australia,,-35.1484351,147.4657556,,,,,,,,,,,,
Shanty Reserve,,,,,Australia,,-35.1112907,147.520692,,,,,,,,,,,,
John Oxley Rest Area,,,,,Australia,,-31.22667,148.45694,,,,,,,,,,,,
Bell River Rest Area,,,,,Australia,,-32.9115036,148.8906573,,,,,,,,,,,,
Caves Turnoff Rest Area,,,,,Australia,,-32.6227687,148.9477118,,,,,,,,,,,,
Meadow Glen Rest Area,,,,,Australia,,-31.5586553,145.1871737,,,,yes,no,,,,no,,yes,yes
Ponto Falls,,,,,Australia,,-32.4657713,148.8225089,,,,,,,,,,,,
Rocky Creek Mill,,,,,Australia,,-30.7158421,149.1455537,,,,,,,,,,,,
Devils Elbow,,,,,Australia,,-32.2275,148.60806,,,,,,,,,,,,
Wooli Rest Area,,,,,Australia,,-29.7839603,153.0083212,,,,yes,no,,,,,,,
Condong RA,,,,,Australia,,-28.3125361,153.4355774,,,,,,,,,,,,
Border RA,,,,,Australia,,-37.3945148,149.6757257,,,,,,,,,,,,
Country Road Caravan Park,Family Parks,,,,Australia,,-30.6489121,151.4925446,,,,,,,,,,,,
Cargelligo Weir,,,,,Australia,,-33.2014433,146.4535262,,,,,,,,,,,,
Bush Tucker Inn,,,,,Australia,,-29.0097354,145.7125871,,,,,,,,,,,,
Humbug Creek RA,,,,,Australia,,-33.517946,147.1469184,,,,,,,,,,,,
Lilydale Falls Camping Area,,,,,Australia,,-41.2298087,147.2098882,,,,,,,,,,,,
Northeast Park,,,,,Australia,,-41.1658336,147.522951,,,,,,,,,,,,
Blackmans Lagoon Camping Area - Waterhouse Cons Area,,,,,Australia,,-40.9128431,147.5954848,,,,yes,no,,,,,,yes,yes
Big Waterhouse Lake Camping Area - Waterhouse Cons Area,,,,,Australia,,-40.8922407,147.6158499,,,,,no,,,,,,yes,yes
South Croppies Point Camping Area - Waterhouse Cons Area,,,,,Australia,,-40.8644746,147.5924166,,,,no,no,,,,,,yes,
Mathers Campground - Waterhouse Cons Area,,,,,Australia,,-40.8275584,147.6688609,,,,yes,no,,,,,,yes,yes
Village Green Campground - Waterhouse Cons Area,,,,,Australia,,-40.8265522,147.6609779,,,,yes,no,,,,,,yes,yes
Ransons Beach Camping Area - Waterhouse Cons Area,,,,,Australia,,-40.8403096,147.6882029,,,,no,no,,,,,,yes,yes
Branxholm Camping Ground,,,,,Australia,,-41.1678906,147.737954,,,,,yes,,yes,,,,yes,yes
Derby Works Depot,,,,,Australia,,-41.1496253,147.8046821,,,,,,,,,,,,
Petal Point Campground,,,,,Australia,,-40.7775454,147.9494282,,,,,,,,,,,,
Deep Creek Campground - Mt William NP,,,,,Australia,,-40.9698159,148.3116931,,,https://www.campingtasmania.com/deep-creek-camping-area.html,yes,no,yes,,,,,yes,yes
Musselroe Bay - Musselroe Bay Cons Area,,,,,Australia,,-40.8352667,148.1775278,,,,yes,no,,,,,,yes,yes
Weldborough Hotel,,,,,Australia,,-41.1944142,147.9049224,,,,,,,,,,,,
Bay Of Fires Conservation Area,,,,,Australia,,-41.0620098,148.2914805,,,,,,,,,,,,
Diana's Basin - St Helens Point State Rec Area,,,,,Australia,,-41.3709096,148.2925792,,,,,,,,,,,,
River and Rocks Campground,,,,,Australia,,-42.0869837,148.2325133,,,,,,,,,,,,
Lake Leake Campground,,,,,Australia,,-42.0091992,147.7976209,,,,,,,,,,,,
Little Swanport Conservation Area,,,,,Australia,,-42.3319224,147.9397411,,,,,,,,,,,,
Triabunna Caravan Park,,Vicary Street,,TAS,Australia,7190,-42.5083381,147.9111492,+61 3 6257 3575,,mariagateway.com,,,,,,,,,
Campbell Town Recreation Ground,,,,,Australia,,-41.9247492,147.4938063,,,,,,,,,,,,
Conara Roadside Park,,,,,Australia,,-41.8300414,147.4389481,,,,,,,,,,,,
Lower Liffey Reserve,,,,,Australia,,-41.6827631,146.7817081,,,,,,,,,,,,
Oatlands Roadside Rest Area,self contained only,,,,Australia,,-42.3001699,147.3769604,,,,no,no,,,,,,no,yes
Jonah Bay Campground - Arthurs Lake Rec Area,,,,,Australia,,-41.9585618,146.9024304,,,,,,,,,,,,
Pumphouse Bay Campground - Arthurs Lake Recreation Area,,,,,Australia,,-41.9850741,146.8611922,,,,,,,,,,,,
Mt Blackwood Lookout,,,,,Australia,,-41.8158814,146.8899497,,,,,,,,,,,,
Cowpaddock Bay Campground - Arthurs Lake Rec Area,,,,,Australia,,-41.9359731,146.8962098,,,,,,,,,,,,
Pub With No Beer Rest Area,,,,,Australia,,-42.3876871,147.0440105,,,,,,,,,,,,
Primrose Sands RSLA Club,,,,,Australia,,-42.8995614,147.672852,,,,,,,,,,,,
Blackburn Creek Rest Area,,,,,Australia,,-42.1728506,146.904631,,,,,,,,,,,,
Coast Care Project Rest Area,,,,,Australia,,-43.139773,146.9721596,,,,,,,,,,,,
Franklin Foreshore Reserve,,,,,Australia,,-43.0922005,147.0098181,,,,,,,,,,,,
Boltons Green Campground - Southwest NP,,,,,Australia,,-43.5828775,146.8950995,,,,yes,no,,,,,,yes,yes
The Neck Campground,,,,,Australia,,-43.2910163,147.3286887,,,,,,,,,,,,
Cockle Creek Campground - Recherche Bay Nature Rec Area,,,,,Australia,,-43.5787908,146.8866151,,,,yes,no,,,,,,yes,yes
Finns Beach Campground - Recherche Bay Nature Rec Area,Parks and Wildlife,,,,Australia,,-43.5485469,146.887214,,,,,no,,,,,,yes,yes
Lake Burbury Foreshore,,,,,Australia,,-42.0737575,145.6384615,,,,,,,,,,,,
Bradys Lake,,,,,Australia,,-42.231701,146.4962747,,,,,,,,,,,,
Hellyer Gorge Rest Area,,,,,Australia,,-41.2734664,145.6149763,,,,,,,,,,,,
Nive River Rest Area,,,,,Australia,,-42.2986066,146.4583003,,,,,,,,,,,,
South Esk Lions Park,,,,,Australia,,-41.5097417,147.0585255,,,,,,,,,,,,
Hagley Rest Area,,,,,Australia,,-41.5256426,146.8989464,,,,,,,,,,,,
Bronte Lagoon Causeway,,,,,Australia,,-42.1798235,146.5005464,,,,,,,,,,,,
Deloraine East Overnight Park,,,,,Australia,,-41.5223632,146.6607135,,,,,,,,,,,,
Wivenhoe Showgrounds,,,,,Australia,,-41.0686826,145.930016,,,,,,,,,,,,
Penguin Beachside Tourist Park,,Johnsons Beach Road,,TAS,Australia,7316,-41.1066254,146.066539,,,,,,,,,,,,
Lake Gairdner,,,,,Australia,,-41.4829712,146.0593173,,,,,,,,,,,,
Black River Campground,,,,,Australia,,-40.8435289,145.3169776,,,,yes,no,,,,,,yes,yes
Sundown Point State Reserve - Nelson Bay,,,,,Australia,,-41.1178947,144.6725341,,,,,,,,,,,,
Rocky Cape Caravan Park,,,,,Australia,,-40.8858058,145.4644747,,,,,,,,,,,,
Springlawn Campground - Narawntapu NP,,,,,Australia,,-41.147799,146.6026384,,,,,,,,yes,,,yes,
Beechford Campground,,,,,Australia,,-41.029998,146.949996,,,,,,,,,,,,
Horseyards Campground - Narawntapu NP,,,,,Australia,,-41.1541248,146.6088067,,,,,,,,,,,,
Rose Bay Park,,,,,Australia,,-41.2942294,146.9728159,,,,,,,,,,,,
Najada Rockhole,,,,,Australia,,-31.7455589,128.6003806,,,,no,,,,,,,,
Hearder Hill Rest Area,,,,,Australia,,-31.7676354,128.5286374,,,,yes,,,,,,,,
Jillah Rockhole Rest Area,,,,,Australia,,-31.8399664,128.1302544,,,,yes,no,,,,,,,
Boolaboola Rest Area,,,,,Australia,,-31.89302,127.6616038,,,,no,,,,,,,,
Carlabeencabba Rockhole Rest Area,,,,,Australia,,-31.921017,127.5194357,,,,no,,,,,,,,
Olwolgin Bluff Rest Area,,,,,Australia,,-31.945736,126.7330776,,,,no,,,,,,,,
Moonera Tank Rest Area,,,,,Australia,,-31.9904967,126.5470853,,,,,,,,,,,,
Observatory Turnoff Rest Area,,,,,Australia,,-32.003399,126.2772274,,,,no,,,,,,,,
Jillbunya Rockhole,,,,,Australia,,-32.174151,125.6738347,,,,,,,,,,,,
Baxter Rest Area,,,,,Australia,,-32.3576585,124.788126,,,,yes,no,,,,yes,,,
90 Mile Sign Rest Area,,,,,Australia,,-32.4530833,123.954761,,,,no,,,,,,,,
Harms Lake Rest Area,,,,,Australia,,-32.2247898,123.3770563,,,,no,,,,,,,,
Afghan Rock,,,,,Australia,,-32.3781766,123.6653689,,,,no,,,,,,,,
Jimberlana Hill Rest Area,,,,,Australia,,-32.1471058,121.8112629,,,,no,,,,,,,,
Norseman East Rest Area,,,,,Australia,,-32.1098173,121.9021497,,,,no,,,,,,,,
Bromus Dam,,,,,Australia,,-32.4578199,121.6833901,,,,yes,no,,,,,,,
Dundas Rocks Campground,,,,,Australia,,-32.3906367,121.7724243,,,,no,,,,,,,,
Peak Charles National Park,,,,,Australia,,-32.8766619,121.172554,,,,,,,,,,,,
Lucky Bay Campground - Cape Le Grand National Park,,,,,Australia,,-33.9918914,122.2196011,,,,,,,,,,,,
Munglinup Rest Area,,,,,Australia,,-33.7046614,120.8614098,,,,yes,yes,,,,yes,,,
Quagi Beach Campgroung,"Camp sites cost $15 per site, per night",,,,Australia,,-33.8291344,121.2919745,+61 8 9083 1555,,https://www.esperance.wa.gov.au/camping,,,,,,no,,,yes
Starvation Boat Harbour,,,,,Australia,,-33.9192915,120.5559594,,,,,,,,,,,,
Millers Point Reserve,,,,,Australia,,-34.4521472,118.8785954,,,,,,,,,,,,
Parry Beach,,,,,Australia,,-35.0395581,117.16016,,,https://www.denmark.wa.gov.au/parry-beach-campground.aspx,yes,yes,,,,,,yes,yes
Shannon Camp Ground - Shannon National Park,,,,,Australia,,-34.5951153,116.4119973,,,https://parks.dpaw.wa.gov.au/site/shannon-campground,,,,,,,,,
Walpole West Rest Area,,,,,Australia,,-34.9572599,116.5960185,,,,,,,,,,,,
Wrights Bridge,,,,,Australia,,-33.8454496,115.9184981,,,,,,,,,,,,
Balingup Transit Park,,,,,Australia,,-33.782341,115.9863674,,,https://balinguptourism.com.au/accommodation/balingup-transit-park-2/,yes,yes,,,yes,,,yes,yes
Honeymoon Pool,,,,,Australia,,-33.3789493,115.9385938,,,https://exploreparks.dbca.wa.gov.au/site/honeymoon-pool-campground,yes,no,,,,,,yes,no
Robinson Road Rest Stop,,,,,Australia,,-33.5385592,117.0881396,,,,,,,,,,,,
Baden Powell Campground - Lane Pool Reserve,,,,,Australia,,-32.7693517,116.0832955,,,,yes,,,,,,,yes,no
Herron Point,,,,,Australia,,-32.7404746,115.7113618,,,,,,,,,,,,
Sue's Bridge Campground - Blackwood River National Park,,,,,Australia,,-34.0772151,115.3892877,,,,yes,no,,,,,,yes,yes
Alexandra Bridge Camping Area,,,,,Australia,,-34.1641853,115.1840691,,,,yes,yes,,,,,,,
Hakea Reserve,,,,,Australia,,-30.4600924,115.3314821,,,,,,,,,,,,
Billabong RA,,,,,Australia,,-26.8155829,114.6149017,,,,,,,,,,,,
Overlander Roadhouse Caravan Facility,,,,,Australia,,-26.4110958,114.4646219,+61 8 9942 5916,,,,,,,,,,,
Rocky Pool,,,,,Australia,,-24.7579151,114.1379605,,,,,,,,,,,,
Gascoyne River (Middle Branch),,,,,Australia,,-25.2024664,119.3342282,,,,,,,,,,,,
The Granites,,,,,Australia,,-28.0088373,117.8541296,,,,,,,,,,,,
Palm Springs,,,,,Australia,,-18.4224328,127.8527494,,,,,,,,,,,,
Walardi Campground - Sites 27-37,,,,,Australia,,-17.5234337,128.2979099,,,,yes,no,,no,no,no,,yes,yes
Spring Creek Rest Area,,,,,Australia,,-17.433762,127.9877845,,,,yes,no,,no,no,yes,,yes,yes
Leycesters Rest Area - Ord River,,,,,Australia,,-17.4792673,127.9512513,,,,,,,,,,,,
Cape Keraudren,,,,,Australia,,-19.9621477,119.7693097,,,,,,,,,,,,
Miners Pool Campground Drysdale River S,,,,,Australia,,-15.6797516,126.4035638,,,,,,,,,,,,
Drysdale River Station Campground,,,,,Australia,,-15.7020373,126.3808998,,,,,,,,,,,,
El Questro Resort Campground,,,,,Australia,,-16.01,127.980003,,,https://www.elquestro.com.au/,,yes,,yes,yes,,,yes,yes
King River (Gibb River Road),,,,,Australia,,-15.9116447,128.1864384,,,,,,,,,,,,
Olivers Bridge (Cataby Brook),,,,,Australia,,-30.7510198,115.5539845,,,,,,,,,,,,
Telegraph Creek Rest Area,,,,,Australia,,-16.8739508,128.282115,,,,,,,,,,,,
Bow River,,,,,Australia,,-16.7985556,128.2814875,,,,,,,,,,,,
Cockburn South Rest Area,,,,,Australia,,-16.00944,128.42556,,,,,,,,,,,,
Kununurra West Rest Area,,,,,Australia,,-15.7672081,128.6549696,,,,,,,,,,,,
Pardoo Creek Rest Area,,,,,Australia,,-20.2808191,119.5062684,,,,,,,,,,,,
Wingan Inlet Campground - Croajingolong NP,,,,,Australia,,-37.7417135,149.4975656,,,,,,,,,,,,
Shipwreck Creek Campground - Croajingolong NP,,,,,Australia,,-37.6446784,149.6988731,,,,,,,,,,,,
Frosty Hollow Camping Area - Errinundra NP,,,,,Australia,,-37.2987227,148.9626068,,,,,,,,,,,,
Buenba Flat #1,,,,,Australia,,-36.7008185,147.9221696,,,,,,,,,,,,
Langfords West Campground,,,,,Australia,,-36.9284355,147.3042512,,,,,,,,,,,,
Bentley Plain Reserve,,,,,Australia,,-37.2279336,147.9231608,,,,,,,,,,,,
Moscow Villa Hut,,,,,Australia,,-37.2261775,147.9221886,,,,,,,,,,,,
Collins Flat Camping Area,,,,,Australia,,-37.3393833,147.298104,,,,,,,,,,,,
Eaglevale Camping Area - Alpine NP,,,,,Australia,,-37.3662434,147.0065868,,,,,,,,,,,,
Unknown,,,,,Australia,,-37.2079248,146.8315485,,,,,,,,,,,,
Samaria Wells Camping Area,Parks Victoria,,,,Australia,,-36.824312,146.0608792,,,,,,,,,,,,
Bluff Hut - Alpine NP,Parks Victoria,,,,Australia,,-37.2157985,146.5242157,,,,,,,,,,,,
King Hut - Alpine NP,,,,,Australia,,-37.08849,146.5723014,,,,,,,,,,,,
Pineapple Flat Camping Area - Alpine NP,,,,,Australia,,-37.0658703,146.4994128,,,,,,,,,,,,
Craig's Hut,,,,,Australia,,-37.1101908,146.5335132,,,,,,,,,,,,
Barnewall Plains Camping Area,,,,,Australia,,-37.3579948,145.9267488,,,,,,,,,,,,
Regular Camp,,,,,Australia,,-37.3316822,145.1580856,,,,,,,,,,,,
Unknown,,,,,Australia,,-37.3167963,143.2733649,,,,,,,,,,,,
Smiths Bridge Camping Area,,,,,Australia,,-37.297868,143.2930157,,,,,,,,,,,,
Sharps Track Camping Area,,,,,Australia,,-38.5511331,143.9320596,,,,,,,,,,,,
Thurra River Campground - Croajingolong NP,,,,,Australia,,-37.7808457,149.3082563,,,,,,,,,,,,
Cann River East Rest Area,,,,,Australia,,-37.5672343,149.1839371,,,,no,,,,,,,,yes
Lomond Hill Rest Area,,,,,Australia,,-37.5750796,149.3062146,,,,,,,,,,,,
Delegate River Camping and Picnic Area,Parks Victoria,,,,Australia,,-37.1958284,148.827546,,,,yes,no,,,,,,,
Newmerella Logging Station Rest Area,No Tents No Camping (Vicroads) sign,,,,Australia,,-37.7400998,148.4217367,,,,,,,,,,,no,yes
Hospital Creek Rest Area,,,,,Australia,,-37.7521359,148.1892235,,,,no,,,,,,,,
Seninis Campground - Moondarra State Park,,,,,Australia,,-38.0234326,146.3397575,,,https://www.parks.vic.gov.au/,yes,,,,,,,,
Willow Park,,,,,Australia,,-38.1419086,146.7918979,,,,,,,,,,,yes,yes
Erica Caravan Park,,,,,Australia,,-37.9785475,146.3734424,,,,,,,,,,,,
Flamingo Beach,,,,,Australia,,-38.2853488,147.3077054,,,,,,,,,,,,
Toorongo Falls Campground,,,,,Australia,,-37.8530282,146.0426705,,,,,,,,,,,,
Nine Mile Creek Rest Area,,,,,Australia,,-38.6438679,146.4823755,,,,,,,,,,,,
Swamp Tower Reserve,,,,,Australia,,-38.2131084,145.4588945,,,,,,,,,,,,
Lightning Creek Campground (North),,,,,Australia,,-36.6607822,147.4332364,,,,yes,no,,,,,,yes,yes
Ellis Bridge RA,,,,,Australia,,-36.4078909,147.2326327,,,,,,,,,,,,
Peters Bridge RA,,,,,Australia,,-36.3998861,147.2468913,,,,,,,,,,,,
Pigs Point Reserve,,,,,Australia,,-36.2796987,147.2375036,,,,,,,,,,,,
Lake Catani Campground - Mt Buffalo NP,,,,,Australia,,-36.7352927,146.8126856,,,,,,,,,,,,
Anglers Rest Camping Area,Parks Victoria,,,,Australia,,-36.9906401,147.4896261,,,,yes,no,,,,,,yes,yes
Staghorn Flat RA,,,,,Australia,,-36.2445986,146.9342535,,,,,,,,,,,,
Moyhu Caravan Park,,,,,Australia,,-36.5768246,146.3789631,,,,,,,,,,,yes,
Doctors Creek Reserve,Large camp site with grass base. Good for caravans and camper trailers,,,,Australia,,-37.3317779,146.1303413,,,,,,,,,,,,
Stringybark Creek Camping Area,,,,,Australia,,-36.872575,146.2020893,,,,yes,,,,,,,,
Yea RA,,,,,Australia,,-37.2124402,145.4411779,,,,,,,,,,,,
Moira Park - Jollys Bend SF,,,,,Australia,,-36.4766117,145.3691818,,,,,,,,,,,,
Wenhams Camping Area,,,,,Australia,,-36.3410296,146.2044935,,,,yes,,,,,,,,
Goulburn River RA,,,,,Australia,,-37.1429439,145.2425738,,,,,,,,,,,,
King Parrot Creek RA,,,,,Australia,,-37.1462033,145.2673438,,,,,,,,,,,,
Loddon Floodway,,,,,Australia,,-35.3781509,143.6893057,,,,,,,,,,,,
Lake Mournpall Campground - Hattah-Kulkyne NP,,,,,Australia,,-34.7046476,142.3357828,,,,,,,,,,,,
Lake Hattah Campground - Hattah-Kulkyne NP,,,,,Australia,,-34.7529099,142.3430789,,,,,,,,,,,,
Wedderburn Pioneer Caravan Park,,Hospital Street,,,Australia,3518,-36.4121911,143.617496,+61 3 5494 3301,,https://www.pioneercaravanpark.com.au/,,,,,,,,,
Murrayville East RA,,,,,Australia,,-35.2617089,141.2501963,,,,,,,,,,,,
Waterfalls Campground,,,,,Australia,,-37.0985538,143.3668546,,,,,,,,,,,,
Lexton South Rest Area,,,,,Australia,,-37.2890451,143.5466384,,,,,,,,,,,,
Vaughan Springs Reserve - Castlemaine Diggings National Heritage Park,,,,,Australia,,-37.1596627,144.2142489,,,,,,,,,,,,
Warburton Bridge Reserve,,,,,Australia,,-37.1708082,144.2384689,,,,,,,,,,,,
Firth Park Campground - Wombat SF,,,,,Australia,,-37.4351079,144.410003,,,,,,,,,,,,
Teddington Reservoir - St Arnaud Range NP,,,,,Australia,,-36.8432804,143.2625613,,,,,,,,,,,,
Mineral Springs Caravan Park,,,,,Australia,,-37.471716,144.3129343,,,,,,,,,,,,
Green Hill Lake Reserve,Ararat Rural City Council; Green Hill Lake Development Board,,,,Australia,,-37.2962295,142.9810738,,,,,,,,,,,,
Newbridge Recreation Reserve,,,,,Australia,,-36.7393866,143.9024157,,,,,,,,,,,,
Meredith Park,,,,,Australia,,-38.267835,143.609112,,,,,,,,,,,,
Lake Yambuk Caravan Park,,,,,Australia,,-38.3396438,142.0545841,,,,,,,,,,,,
Ash Wednesday Memorial RA,,,,,Australia,,-38.3361556,142.7272859,,,,,,,,,,,,
Smiths Mill Campground,Parks Victoria,,,,Australia,,-37.1077451,142.423232,,,,,,,,,,,yes,yes
Wannon Falls Campground,,,,,Australia,,-37.6745127,141.846983,,,,,,,,,,,,
Browns Water Holes Caravan Park,,,,,Australia,,-37.954319,143.3474425,,,,,,,,,,,,
Princess Margaret Rose Caves - Lower Glenelg NP,,,,,Australia,,-37.9868781,140.9918458,,,,,,,,,,,,
Pritchards Campground - Lower Glenelg NP,,,,,Australia,,-38.0563554,141.2186404,,,,,,,,,,,,
Jackass Fern Gully Campground - Cobboboonee SF,,,,,Australia,,-38.0748152,141.4256401,,,,,,,,,,,,
Sawpit Campground - Mt Clay State Forest,,,,,Australia,,-38.2349954,141.6879871,,,,,,,,,,,,
Western Beach Campground - Lake Albacutya Regional Park,,,,,Australia,,-35.7804513,141.9358507,,,,,,,,,,,,
Rainbow Caravan Park,,,,,Australia,,-35.8999284,141.9898456,,,,,,,,,,,,
Mountain Dam Campground - Rocklands Reservoir,,,,,Australia,,-37.224187,142.0865758,,,,,,,,,,,,
Wonga Campground - Wyperfeld NP,,,,,Australia,,-35.5832852,142.0534577,,,,,,,,,,,,
Yaapeet Beach Campground - Lake Albacutya Regional Park,,,,,Australia,,-35.7661714,142.0067479,,,,,,,,,,,,
Stevenson Falls Campingground,,,,,Australia,,-38.5635703,143.6565091,,,,,,,,,,,,
Dandos Campingground,,,,,Australia,,-38.5538594,143.6187773,,,,,,,,,,,,
Dolly Creek,,,,,Australia,,-37.752813,144.094647,,,,,,,,,,,yes,yes
Kromelite Road Rest Area,,,,,Australia,,-37.8463541,140.9205051,,,,,,,,,,,,
Millicent South Rest Area,,,,,Australia,,-37.6338954,140.3918232,,,,,,,,,,,,
Springs Road Rest Area,,,,,Australia,,-37.213794,139.8879686,,,,,,,,,,,,
Jumbo's Jetty,,,,,Australia,,-37.1764269,139.7952632,,,,,,,,,,,,
Old Man Lake - Little Dip Conservation Park,,,,,Australia,,-37.2610469,139.8220225,,,,,,,,,,,,
The Gums Campground - Little Dip Conservation Park,,,,,Australia,,-37.1872219,139.7672144,,,,,,,,,,,,
42 Mile Crossing Campground - Coorong NP,,,,,Australia,,-36.2876692,139.7117812,,,,,,,,,,,yes,yes
42 Mile Crossing Rest Area,,,,,Australia,,-36.2730164,139.7224725,,,,,,,,,,,,
Coorong Caravan Park,,,,,Australia,,-36.0587238,139.5909094,,,,,,,,,,,,
Gemini Downs Holiday Centre,,,,,Australia,,-36.0978494,139.628772,,,,,,,,,,,,
Meningie South Rest Area,,,,,Australia,,-35.7070189,139.3450979,,,,,,,,,,,,
Keith Caravan Park,,,,,Australia,,-36.1013659,140.3513396,,,,,,,,,,,,
Telford Scrub Rest Area,,,,,Australia,,-37.699611,140.7978512,,,,,,,,,,,,
Leconfield Rest Area,,,,,Australia,,-37.3397241,140.8436391,,,,,,,,,,,,
Padthaway Caravan Park,,,,,Australia,,-36.6003857,140.5048442,,,,,,,,,,,,
Peake Rest Area,,,,,Australia,,-35.366637,139.9511938,,,,,,,,,,,,
Customs House Campground,,,,,Australia,,-33.9733581,140.9577229,,,,,,,,,,,,
Karoonda Apex Caravan Park,,,,,Australia,,-35.096147,139.8898984,,,,,,,,,,,,
Campground 10 - Loch Luna Game Reserve,,,,,Australia,,-34.2219388,140.3949,,,,,,,,,,,,
Walker Flat Boat Ramp Reserve,,,,,Australia,,-34.7517019,139.560275,,,,,,,,,,,,
Ankara Youth Camp,Seventh-Day Adventist Church,Angas Valley Road,,,Australia,,-34.757652,139.5704529,+61 428 440 133,,https://www.ankaracamp.org.au/index.html,,,,,,,,,
Nackara East Rest Area,,,,,Australia,,-32.7674534,139.2874816,,,,no,,,,,,,yes,yes
Olary Creek,,,,,Australia,,-32.2702523,140.3450675,,,,no,,,,,,,,
Stringybark Campground - Deep Creek Conservation Park,,,,,Australia,,-35.6068432,138.2388947,,,,yes,yes,,no,no,,,yes,yes
Second Valley Caravan Park,,,,,Australia,,-35.5129007,138.2186488,,,,,,,,,,,,
Balaklava Caravan Park,,,,,Australia,,-34.1494131,138.4193834,,,,,,,,,,,,
Lochiel North RA,,,,,Australia,,-33.9139204,138.163238,,,,,,,,,,,,
21 Peg Rest Area,,,,,Australia,,-33.7630931,139.1172095,,,,no,,,,,,,yes,yes
Horrocks Pass,,,,,Australia,,-32.6415971,138.0372753,,,,,,,,,,,,
Two Wells Rest Area,,,,,Australia,,-34.5958626,138.5163857,,,,,,,,,,,,
Port Vincent Seaside Flats and Caravan Park,,,,,Australia,,-34.7788314,137.8635096,,,,,,,,,,,,
Troubridge Hill Camping Reserve,,,,,Australia,,-35.166866,137.6396964,,,,,,,,,,,,
Yorketown Community Caravan Park,,,,,Australia,,-35.0200306,137.6101399,,,,,,,,,,,,
Wirrabara Oval Caravan Park,,,,,Australia,,-33.0322597,138.2652675,,,,yes,yes,,,yes,yes,,,
Maitland Rest Area,,,,,Australia,,-34.3697571,137.6705194,,,,,,,,,,,,
Port Minlacowie Boat Ramp,,,,,Australia,,-34.8275198,137.4587804,,,,,,,,,,,,
Cadney Homestead Caravan Park,,,,,Australia,,-27.9059062,134.0568816,,,,,,,,,,,,
Louth Bay North Rest Area,,,,,Australia,,-34.5292677,135.9197799,,,,,,,,,,,,
Tumby Bay North Rest Area,,,,,Australia,,-34.2798284,136.1681159,,,,,,,,,,,,
Eight Mile Creek Beach,,,,,Australia,,-33.0981649,137.523787,,,,,,,,,,,,
Fitzgerald Bay Bush Camp - Native Myrtle Retreat - no facilities,Whyalla City Council,,,,Australia,,-32.9079111,137.7618179,,,https://www.whyalla.com/bush-camps-motorhomes,no,,,,,,,yes,yes
Harbour View Caravan Park,,,,,Australia,,-33.6729499,136.9389313,,,,,,,,,,,,
Whyalla South Rest Area,,,,,Australia,,-33.0599388,137.4629995,,,,no,,,,,,,,
Port Neill South Rest Area,,,,,Australia,,-34.1996748,136.2329141,,,,no,,,,,,,,
Port Gibbon South Rest Area,,,,,Australia,,-33.8269975,136.6956054,,,,no,,,,,,,,
Port Neill North Rest Area,,,,,Australia,,-34.0084678,136.4170588,,,,,,,,,,,,
Haslam Caravan Park,,,,,Australia,,-32.5092601,134.2140448,,,,,,,,,,,,
Smoky Bay Rest Area,,,,,Australia,,-32.3699597,133.9599995,,,,,,,,,,,,
Iron Knob East Rest Area,,,,,Australia,,-32.6174922,137.5264366,,,,,,,,,,,,
17k Peg Rest Area,,,,,Australia,,-31.658619,129.1681959,,,,no,,,,,,,,
25k Peg Rest Area,Not a formal SA Gov Rest Area,,,,Australia,,-31.6492559,129.2547676,,,,no,,,,,,,,
38k Peg Rest Area,,,,,Australia,,-31.6382848,129.3888281,,,,no,,,,,,,,
42k Peg Rest Area,,,,,Australia,,-31.6367566,129.43128,,,,,,,,,,,,
52k Peg Rest Area,,,,,Australia,,-31.6207619,129.5291489,,,,no,,,,,,,,
Bunda Cliffs Rest Area;75k Peg Rest Area,Not a formal SA Govt Rest Area,,,,Australia,5690,-31.6062796,129.7766552,,,,no,,,,,,,,
81k Peg Rest Area,,,,,Australia,,-31.5874091,129.8342996,,,,no,,,,,,,,
10k Peg Rest Area,,,,,Australia,,-31.6484438,129.1000682,,,,no,,,,,,,,
Penong East Rest Area,,,,,Australia,,-31.9407003,133.2754173,,,,no,,,,,,,,
Puntabie East Rest Area,,,,,Australia,,-32.2105246,134.129805,,,,no,,,,,,,,
Carawa North Rest Area,,,,,Australia,,-32.304781,134.2534391,,,,no,,,,,,,,
133k Peg Rest Area,,,,,Australia,,-31.5831012,130.3721445,,,,no,,,,,,,,
111k Peg Rest Area,,,,,Australia,,-31.577607,130.1459879,,,,no,,,,,,,,
164k Peg Rest Area,,,,,Australia,,-31.5345513,130.6922565,,,,no,,,,,,,,
157k Peg Rest Area,,,,,Australia,,-31.5506794,130.617782,,,,no,,,,,,,,
Yalata West Rest Area,,,,,Australia,,-31.4097539,131.6142329,,,,no,,,,,,,,
222k Peg Rest Area,,,,,Australia,,-31.3652862,131.266461,,,,no,,,,,,,,
Kidnippy Rest Area,,,,,Australia,,-31.660562,132.0952647,,,,no,,,,,,,,
Wudinna (West) Rest Area,,,,,Australia,,-33.0019951,135.359171,,,,no,,,,,,,,
Fern Flat,,,,,Australia,,-21.1698174,148.4993512,,,,,,,,,,,,
Starkvale Creek Campground - Expedition NP,,,,,Australia,,-25.3052566,149.188759,,,,,,,,,,,,
Nogoa River Campground - Carnarvon NP,,,,,Australia,,-24.80295,147.2037208,,,,,,,,,,,,
Spicer's Gap Campground - Main Range NP,,,,,Australia,,-28.0734558,152.4273079,,,,,,,,,,,,
Mossman Showgrounds,,,,,Australia,,-16.4619144,145.3657047,,,,,,,,,,,,
The Boulders,,,,,Australia,,-17.3398979,145.870755,,,,,,,,,,,,
Bilyana Rest Area,,,,,Australia,,-18.11861,145.91194,,,,yes,no,,no,no,no,,yes,yes
Murray Falls Campground,,,,,Australia,,-18.15306,145.81583,,,,,,,,,,,,
Toomulla Beach,Townsville City Council,,,,Australia,,-19.0831946,146.4756647,,,https://townsville.qld.gov.au/,yes,no,,,,,,,
Burdekin Cascades Caravan Park,,,,,Australia,,-19.5801089,147.4016996,,,,,,,,,,,,
Ball Bay Camping Reserve,,,,,Australia,,-20.9026971,148.9952884,,,,,,,,,,,,
Mirani Caravan Park,,,,,Australia,,-21.1622317,148.8666562,,,,,,,,,,,,
Carmila Beach,,,,,Australia,,-21.9144513,149.4635336,,,,,,,,,,,,
Red Rock Campground - Byfield SF,,,,,Australia,,-22.8734227,150.6856338,,,,yes,no,,no,no,,,yes,yes
Burrum River Caravan Park,,,,,Australia,,-25.3297522,152.5786186,,,,,,,,,,,,
Wongi Campground - Wongi SF Rec Area,,,,,Australia,,-25.4371419,152.5434815,,,,,,,,,,,,
Jowarra Park,,,,,Australia,,-26.773002,153.0381893,,,,,,,,,,,,
Railco Railway Museum,,,,,Australia,,-17.60833,145.4825,,,,yes,yes,,,yes,,,,
Rocky Creek War Memorial Park,,,,,Australia,,-17.1817354,145.4559277,+61 1300 366 361,,,,,,,,,,,
Walkers Creek,,,,,Australia,,-17.4701679,141.1806545,,,,,,,,,,,,
Monstraven Layby,,,,,Australia,,-19.9482726,140.2076057,,,,no,,,,,,,,
Telstra Tower Layby,,,,,Australia,,-19.9873791,140.2162256,,,,,,,,,,,,
Bridgewater Creek Rest Area,,,,,Australia,,-23.6640681,149.4281311,,,,yes,no,,,,,,,yes
Barcaldine Showgrounds Caravan Park,,,,,Australia,,-23.5514348,145.2941311,,,,,,,,,,,,
Bull Creek Farmstay,,,,,Australia,,-23.62,148.080001,,,,,,,,,,,,
Kynuna Caravan Park,,,,,Australia,,-21.5788043,141.9194717,,,,,,,,,,,,
Blue Heeler Caravan Park,,,,,Australia,,-21.5779853,141.9225966,,,,,,,,,,,,
Corfield Rest Area,,,,,Australia,,-21.7145072,143.3740878,,,,yes,yes,,,,,,,
Long Waterhole,,,,,Australia,,-22.4122397,143.0587326,,,,,,,,,,,,
Neville Hewitt Weir,Banana Shire,,,,Australia,,-24.1856341,149.8071453,,,,yes,yes,,,no,,,yes,yes
Wowan Van Park,,,,,Australia,,-23.9111152,150.1944072,,,,,,,,,,,,
Peak Creek Rest Area,,,,,Australia,,-22.4107855,139.6633235,,,,yes,no,,,,,,,
Crows Nest Falls Campground,,Three Mile Road,,QLD,Australia,4355,-27.2544143,152.1090128,,,,,,,,,,,yes,
Cressbrook Dam Campground,,,,,Australia,,-27.2610627,152.1877296,,,,,,,,,,,,
Wuruma Dam,,,,,Australia,,-25.1807528,150.9879255,,,,,,,,,,,,
Isla Gorge Campground - Isla Gorge NP,,,,,Australia,,-25.1915097,149.9729761,,,,yes,no,,,,,,,
Kilcoy Anzac Memorial Park,,,,,Australia,,-26.9422612,152.5680264,,,,,,,,,,,,
Cruice Park,,,,,Australia,,-26.9282449,152.758275,,,,,,,,,,,yes,yes
Yallakool Tourist Park,,,,,Australia,,-26.3050919,151.9948982,,,,,,,,,,,,
Yarramalong Weir,Short Term Rest Area - 72 hours in consecutive 7 day period maxstay.,,,,Australia,,-27.8351463,151.4507661,,,,yes,no,,,,,,yes,yes
Allora Apex Park,,,,,Australia,,-28.035641,151.9883124,,,,,,,,,,,,
Alternate Camping Site - Wet Weather Only,Longreach Regional Council,,,,Australia,,-24.2604758,144.4409638,,,,yes,yes,,,,,,yes,yes
Andrew Drynan Park,,,,,Australia,,-28.3197595,152.9341092,+61 7 5544 1281,,,yes,no,,no,,,,yes,yes
Langdon Reserve,,,,,Australia,,-28.1688718,152.8908093,,,,,,,,,,,,
Texas Apex Park,,,,,Australia,,-28.8704726,151.1651818,,,,,,,,,,,,
Goondiwindi Weir Town Common,,,,,Australia,,-28.5105214,150.3391457,,,,,,,,,,,,
Washpool Camping Reserve - Leslie Dam,,,,,Australia,,-28.2406209,151.9164808,,,,,,,,,,,,
Sandy Creek Hotel,,,,,Australia,,-28.1838286,151.9469863,,,,,yes,,,,,,,
Childers CP,,,,,Australia,,-25.1975026,152.2973545,,,,,,,,,,,,
Country Stopover CP,,,,,Australia,,-25.566597,152.6612037,,,,,,,,,,,,
Imbil Camping Retreat,,,,,Australia,,-26.458877,152.6820308,,,https://www.imbilcampingretreat.com.au/,,,,,,,,yes,yes
Sandalwood Van & Leisure Park,,,,,Australia,,-28.9403377,153.4721937,,,,,,,,,,,,
Leanganook Camping Area,Parks Victoria,,,VIC,Australia,3453,-37.0178943,144.3065202,,,https://www.parks.vic.gov.au/places-to-see/sites/leanganook-camping-area,yes,,,,,,,,
Nug Nug Reserve,,,,,Australia,,-36.6613775,146.7065511,,,,,,,,,,,,
Barilla Holiday Park,,Richmond Road,,TAS,Australia,7170,-42.8326548,147.4454449,,,,,,,,,,,,
Cobbler Hill,,,,,Australia,,-35.6472556,138.1741657,,,,,,,,,,,,
Eagle Waterhole Campsite,,,,,Australia,,-35.6469696,138.192379,,,,,,,,,,,,
Tapanappa Campsite,,,,,Australia,,-35.6352651,138.2589064,,,,,,,,,,,,
Port Lincoln Caravan Park,,,,,Australia,,-34.6311952,135.8631018,,,,,,,,yes,,,,
Unknown,,,,,Australia,,-38.0304103,147.2486801,,,,,,,,,,,,
Tomaga River Tourist Park,,,,,Australia,,-35.8249232,150.1852455,,,,,,,,,,,,
Suffolk Beachfront Holiday Park,,,,,Australia,,-28.6911079,153.6127996,,,,yes,,yes,,,yes,,yes,yes
Borden Rest Area,,,,,Australia,,-34.0710244,118.2630894,,,,yes,no,,,,,,,
Crooked Creek Rest Area,Forestry Corporation of NSW,,,,Australia,,-28.9269242,152.3124824,,,,yes,no,,no,,,,yes,yes
Kings Plains Creek Camping and Picnic Area,,,,,Australia,,-29.5839713,151.3891949,,,,,,,no,,,,yes,no
Ironbark Camping Area,,,,,Australia,,-29.5902977,151.3905307,,,,,,,no,,,,yes,yes
Belair National Park Caravan Park,,Upper Sturt Road,,SA,Australia,5052,-35.011344,138.6348021,,,https://belaircaravanpark.com.au/,,,,,,,,,
Porepunkah Pines Holiday Park,,Great Alpine Road,,,Australia,3740,-36.7048487,146.9173633,+61 3 5756 2282,,https://porepunkahholidaypark.com.au/,,,,,,,,,
Bush Camping,,,,,Australia,,-23.748555,132.9147093,,,,,,,,,,,,
Tin Hut,,,,,Australia,,-30.8432347,152.0805878,,,,,,,,,,,,
Red Devil Camping,,,,,Australia,,-28.666808,153.612637,,,,,,,,,,,,
Queen's Meadow Caravan Park,,Barrack Street,,,Australia,3523,-36.9243728,144.7139289,,,,,,,,,yes,,yes,
Unknown,,,,,Australia,,-30.9837163,151.9706239,,,,,,,,,,,,
Riverside,,,,,Australia,,-30.9714481,152.0099952,,,,,,,,,,,,
Lakeside cabins & holiday village,,,,,Australia,,-35.1955172,150.5569238,,,,,,,,yes,yes,,yes,
Unknown,,,,,Australia,,-25.2909138,152.8502788,,,,,,,,,,,,
Surfside Cudmirrah Beach,,Collier Drive,,NSW,Australia,2540,-35.2010286,150.5578936,,,https://www.surfsidecudmirrahbeach.com.au/,,,,,yes,yes,,yes,yes
Toora Tourist Park,,,,,Australia,,-38.6615343,146.3269474,+61 3 5686 2257,,https://www.tooratouristpark.com.au/,,,,,,,,,
Long Jetty Caravan Park,,Port Welshpool Road,,,Australia,,-38.6982071,146.4516279,,,https://www.longjettycaravanpark.com.au/,,,,yes,yes,,,,
Jokers Flat Camping Area,Parks Victoria,,,,Australia,,-36.9433851,147.4737873,,,,yes,no,,,,,,yes,yes
Murrenbong Scouts Campsite,Scouts Australia Queensland Branch,Scout Road,,,Australia,,-27.2340128,152.9384918,,,,,,,,,,,,
Keppel Sands Caravan Park,,,,,Australia,,-23.3250936,150.7885832,,,,,,,,,,,,
Honeymoon Bay Campground,Department of Defence,,,,Australia,,-35.0576297,150.7774165,,,,,,,,,,,,
Grannies Hill Campsite,,,,,Australia,,-35.559987,138.9203015,,,,,,,,,,,,
Mount Buffalo Caravan Park,,Harrison Lane,,,Australia,3740,-36.6929982,146.8985979,+61 3 5756 2235,info@mtbuffalocaravanpark.com.au,http://www.mtbuffalocaravanpark.com.au/,,,,,,,,,
Riverview Caravan Park,,Junction Road,,,Australia,3740,-36.6939335,146.8959938,+61 3 5756 2290,stay@riverviewcaravanpark.com.au,https://www.riverviewcaravanpark.com.au/,,,,,,,,,
Mount Compass Caravan Park,,,,,Australia,,-35.3617946,138.6139476,,,,,,,,,,,,
Tranquill Waters Cullulleraine,,Sturt Highway,,VIC,Australia,3496,-34.2753005,141.6031366,,,http://www.tranquilwaterscullulleraine.com.au/,yes,yes,,,yes,yes,,yes,yes
Bushmans Rest Caravan Park,,,,,Australia,,-34.2724489,141.5869728,+61 3 5028 2252,,https://www.bushmansrest.com.au/,,,,,yes,yes,,,
Koolamurt Scout Camp,,,,,Australia,,-36.8024956,144.288363,,,,,,,,,,,,
Marunbabidi Wilderness Lodge,,,,,Australia,,-15.3995191,126.1517513,,,,,,,,,,,,
Marunbabidi Wilderness Camp,,,,,Australia,,-14.8173841,125.8420225,,,,,,,,,,,,
Highlands Caravan Park,,Emily Street,,,Australia,,-37.021463,145.1260207,+61 3 5792 2124,,https://www.highlandscaravanpark.com.au/,,,,,yes,yes,,,
Ace Caravan Park,,,,,Australia,,-37.0221504,145.1218146,,,,,,,,,,,,
Woodside Central Caravan Park,,,,,Australia,,-38.524029,146.8767027,,,,,,,,,,,,
Unknown,,,,,Australia,,-35.9685325,149.740204,,,,,,,,,,,,
Unknown,,,,,Australia,,-35.9691749,149.7408558,,,,,,,,,,,,
Unknown,,,,,Australia,,-35.9580675,149.7479165,,,,,,,,,,,,
Unknown,,,,,Australia,,-35.9660094,149.7407872,,,,,,,,,,,,
Unknown,,,,,Australia,,-35.9389003,149.7459791,,,,,,,,,,,,
Unknown,,,,,Australia,,-35.9430343,149.7490272,,,,,,,,,,,,
Unknown,,,,,Australia,,-35.954115,149.7447854,,,,,,,,,,,,
Unknown,,,,,Australia,,-35.9614285,149.7443642,,,,,,,,,,,,
Unknown,,,,,Australia,,-35.9499735,149.7445589,,,,,,,,,,,,
Unknown,,,,,Australia,,-35.945056,149.7437184,,,,,,,,,,,,
Unknown,,,,,Australia,,-35.9668609,149.7442676,,,,,,,,,,,,
Unknown,,,,,Australia,,-35.9524842,149.7476204,,,,,,,,,,,,
Unknown,,,,,Australia,,-35.9712398,149.7478346,,,,,,,,,,,,
Unknown,,,,,Australia,,-35.9576824,149.7460917,,,,,,,,,,,,
Lady Northcote Recreation Camp,YMCA,,,,Australia,,-37.7147438,144.3156581,,,https://camps.ymca.org.au/discover/lady-northcote.html,,,,,,,,,
Bungle Bungle Wilderness Camp,,,,,Australia,,-17.5295442,128.2941817,,,,,,,,,,,,
Resort Lake Argyle Paradise,,,,,Australia,,-16.112801,128.7404186,,,,,,,,,,,,
Mecca Caravan Park,,,,,Australia,,-33.1502584,151.5239178,,,,,,,,,,,,
Arderns Caravan Park,,,,,Australia,,-36.5688817,146.7290341,,,,,,,,,,,,
Pelican Caravan Park,,,,,Australia,,-22.390287,143.0350494,,,www.pelicancaravanpark.com.au,,,,,,,,,
Wodonga Caravan & Cabin,,,,,Australia,,-36.1120325,146.8667017,,,https://www.wccp.com.au/,,,,,,,,,
Karratha Caravan Park,,,,,Australia,,-20.766639,116.8588903,,,,,,,,,,,,
Gracemere Caravan Park,,,,,Australia,,-23.4247515,150.4627131,,,,,,,,,,,,
McGregor Recreational Field,,,,,Australia,,-20.3080423,118.6173972,,,,,,,,,,,,
Mulloon Creek Camp Ground,,,,,Australia,,-35.4381082,149.5702799,,,,,,,,,,,,
Discovery Holiday Parks â€“ Hadspen,,,,,Australia,,-41.5040173,147.0700554,,,https://www.discoveryholidayparks.com.au/tas/launceston_tamar_valley/hadspen,,,,,,,,,
Albury Gardens Tourist Park,,Catherine Crescent,,NSW,Australia,2641,-36.0420992,146.9579476,,,,,,,,,,,,
7 Knights Caravan Park,,,,,Australia,,-29.0626145,152.0167111,,,,,,,,,,,,
Craig's Caravan Park,,,,,Australia,,-29.061648,152.0169651,,,,,,,,,,,,
Glen Rest Caravan Park,,,,,Australia,,-29.7708649,151.7314968,,,,,,,,,,,,
Unknown,,,,,Australia,,-33.7238004,150.5567328,,,,no,no,,,,,,yes,no
Moe Gardens Caravan Park,,,,,Australia,,-38.1764479,146.2504498,,,www.moegardenscaravanpark.com.au,,,,,,,,,
Big 4 Deniliquin Holiday Park,,,,,Australia,,-35.5143713,144.9277207,,,,,,,,,,,yes,yes
Lismore Lake Caravan Park,,,,,Australia,,-28.8363821,153.2659261,,,,,,,,,,,,
Lower Gums - Centenary Park Campground,Parks Victoria,,,,Australia,,-36.7579179,141.8499673,,,,yes,no,,no,no,,,yes,no
The Pines - Centenary Park Campground,Parks Victoria,,,,Australia,,-36.7597754,141.8481063,,,,yes,no,,no,no,,,yes,yes
Upper Gums - Centenary Park Campground,Parks Victoria,,,,Australia,,-36.7585282,141.8485756,,,,yes,no,,no,no,,,yes,yes
Ballina Waterfront Village,,River Street,,,Australia,,-28.8654787,153.5240112,,,,yes,yes,,,yes,yes,,,
Broken Head Holiday Park,,,,,Australia,,-28.7058826,153.6139777,,,,,,,,no,,,,
Kalganyi Holiday Park,,Penola Road,,,Australia,,-37.8048639,140.7934724,,,https://www.kalganyi.com.au/,,,,,,,,,
Sunrasia Holiday Park,,,,,Australia,,-34.228769,142.098142,,,,,,,,,,,,
Black Rocks Camping Area,NSWNPWS,,,,Australia,,-29.2513363,153.3652178,,,https://www.nationalparks.nsw.gov.au/camping-and-accommodation/campgrounds/black-rocks-campground,,no,,,,,,yes,yes
Brooms Head Caravan Park,,,,,Australia,,-29.6072867,153.3365452,,,,,,,,,,,,
Iluka Clarence Head Caravan Park,,,,,Australia,,-29.4119547,153.3571201,,,,,,,,,,,,
Maclean Riverside Caravan Park,,,,,Australia,,-29.4493359,153.2016811,,,,,,,yes,yes,,,,
Eumeralla Scout Camp,,,,,Australia,,-38.3951229,144.2146085,,,,,,,,,,,,
The Homestead @ Lotus Creek,,,,,Australia,,-22.3479558,149.1032886,+61 7 4956 8350,,https://www.lchomestead.com,yes,yes,,,yes,yes,,yes,yes
Traralgon Park Lane Holiday Park,,,,,Australia,,-38.2152079,146.4777724,,,,,,,,,,,,
Christmas Brook Confluence,,,,,Australia,,-32.8357747,116.1303304,,,,,,,,,,,,
Country Gardens Caravan Park,,,,,Australia,,-36.4414605,145.2033268,,,,,,,,,,,,
Nabiac Caravan Park,,,,,Australia,,-32.0925776,152.383952,+61 2 6554 1213,,,yes,yes,,,yes,,,yes,yes
Kempsey Tourist Village,,,,,Australia,,-31.1030645,152.8324928,,,,,,,,,,,,
Tall Timbers Caravan Park,,,,,Australia,,-31.1110018,152.8326144,,,,,,,,,,,,
Clearwater By The Upper Murray Caravan Park,,Back Tintaldra Road,,VIC,Australia,3708,-36.0468114,147.929046,+61 2 6077 9207,stay@clearwatercaravan.com.au,http://www.clearwatercaravan.com.au/index.html,,,,,,,,yes,yes
Poochera Hotel Caravan Park,,,,,Australia,,-32.7199976,134.8370361,,,,yes,yes,,,,,,,
Unknown,,,,,Australia,,-29.7553565,153.2910987,,,,,,,,,,,,
Diamond Waters Caravan Park,,Diamond Head Road,,NSW,Australia,2443,-31.6703886,152.8030408,+61 6559 9334,,https://www.diamondwaterscaravanpark.com.au/,,,,,,,,,
Illaroo North,,,,,Australia,,-29.7566919,153.2914661,,,,,,,,,,,,
Illaroo South,,,,,Australia,,-29.7587216,153.2920166,,,,,,,,,,,,
Indian Head Camping Area,,,,,Australia,,-31.7304465,152.7941664,,,https://www.nationalparks.nsw.gov.au/camping-and-accommodation/campgrounds/indian-head-campground,yes,yes,,no,no,no,,yes,yes
Kylie's Beach Campground,,,,,Australia,,-31.735762,152.7915096,,,https://www.nationalparks.nsw.gov.au/camping-and-accommodation/campgrounds/kylies-beach-campground,,yes,,,,,,yes,yes
Kylies Hut Walk-In Camping Area,,,,,Australia,,-31.7320254,152.7917694,,,https://www.nationalparks.nsw.gov.au/camping-and-accommodation/campgrounds/kylies-hut-walkin-campground,yes,no,,,,,,yes,no
Reflections Nambucca Heads - Holiday Park,Reflections Holidays,Liston Street,,,Australia,,-30.6373497,153.0137889,+61 2 6568 6547,NambuccaHeads@reflectionsholidays.com.au,https://reflectionsholidays.com.au/parks/nambucca-heads/,,,,,,,,yes,yes
Urunga Waters Tourist Park,,,,,Australia,,-30.4812925,153.0043359,,,,,,,,,,,,
Moroochydore Beach Holiday Park,,,,,Australia,,-26.6608303,153.1041028,,,,,,,,,,,,
Rainbow Beach Holiday Village,,Rainbow Beach Road,,,Australia,,-25.903532,153.0924853,,,,,,,,,,,,
Rainbow Waters Holiday Park,,,,,Australia,,-25.8979851,153.0602715,,,,,,,,,,,,
Lockhart Caravan Park,,,,,Australia,,-35.2199639,146.713077,,,,,,,,,,,,
Reflections Massy Greene - Holiday Park,Reflections Holidays,,,NSW,Australia,,-28.5362463,153.547507,+61 2 6685 1329,massygreene@reflectionsholidays.com.au,https://reflectionsholidays.com.au/parks/massy-greene/,,,,,yes,,,yes,yes
Freemans Camping Area,,,,,Australia,,-33.2006409,151.6039252,,,,,,,,,,,,
Lakeside Leisure Manuafactured Home Village,,,,,Australia,,-33.1923126,151.5588023,,,,,,,,,,,,
Moreton Telegraph Station Camping Ground,,,,,Australia,,-12.4534794,142.6392728,,,,,,,,,,,,
Unknown,,,,,Australia,,-32.3094634,115.7977542,,,,,,,,,,,,
Lithgow Tourist & Van Park,,Cooerwull Road,,,Australia,,-33.4726707,150.1290514,+61 2 6351 4350,,https://lithgowcaravanpark.com.au,,,,,,,,,
Riverdale Caravan Park,,,,,Australia,,-24.8609012,152.3498331,,,,,,,,,,,,
Glenlodge Caravan Village,,Goodwood Road,,,Australia,,-24.9063899,152.3653554,+61 7 4153 1515,,https://glenlodge.com.au/,,,,,yes,yes,,,
Merriwa Caravan Park,,,,,Australia,,-32.1385692,150.3503516,,,,,,,,,,,,
Peacefull Bay Caravan Park,,,,,Australia,,-35.0390104,116.9294606,,,https://www.peacefulbaywa.com.au/,yes,yes,,,,,,yes,yes
Lakes & Craters Holiday Park,,Park Road,,,Australia,,-38.2351294,143.115494,+61 3 5593 1253,info@lchp.com.au,https://lakesandcratersholidaypark.com.au/,,,,,,,,yes,
Dongara-Denison Beach Holiday Park,,,,,Australia,,-29.2700768,114.9229193,,,,,,,,,,,,
Koondrook Caravan Park,,,,,Australia,,-35.6428478,144.1333207,,,,,,,,,,,,
Reflections Mylestom - Holiday Park,Reflections Holidays,Beach Parade,,NSW,Australia,2454,-30.4630311,153.0465534,,Mylestom@reflectionsholidays.com.au,https://reflectionsholidays.com.au/parks/mylestom/,,,,,yes,,,,
Bellinger River Tourist Park,,,,,Australia,,-30.4392281,153.0201358,,,,,,,,,,,,
Dorrigo Mountain Holiday Park,,,,,Australia,,-30.3508447,152.7157773,,,,,,,,,,,yes,yes
Black Snake,,,,,Australia,,-37.4424811,147.14528,,,,,,,,,,,,
Unknown,,,,,Australia,,-37.4435821,147.1448377,,,,,,,,,,,,
Bullock Flat Camping Area - Alpine NP,,,,,Australia,,-37.3741651,147.0561224,,,,,,,,,,,,
Lakes Haven Caravan Park,,,,,Australia,,-37.8772832,147.9975545,,,,,,,,,,,,
Echo Beach Tourist Park,,,,,Australia,,-37.874726,148.0014592,,,,,,,,,,,,
Unknown,,,,,Australia,,-37.3049283,146.1372655,,,,,,,,,,,,
